dateAdded,dateUpdated,address,categories,city,country,keys,latitude,longitude,name,postalCode,province,Big4
2016-03-29T05:06:36Z,2018-06-26T02:59:52Z,206 Wears Valley Rd,Fast Food Restaurant,Pigeon Forge,US,us/tn/pigeonforge/206wearsvalleyrd/-864103396,35.803788,-83.58055300000001,Taco Bell,37863,TN,Taco Bell
2015-10-23T23:59:49Z,2018-06-26T02:59:43Z,9768 Grand River Ave,Fast Food Restaurant,Detroit,US,us/mi/detroit/9768grandriverave/-791445730,42.368823,-83.138251,Wendy's,48204,MI,Wendys
2015-09-21T07:47:08Z,2018-06-26T02:59:43Z,13600 W McNichols Rd,Fast Food Restaurant,Detroit,US,us/mi/detroit/13600wmcnicholsrd/-2061630068,42.416819,-83.180444,Burger King,48235,MI,Burger King
2017-06-30T23:04:32Z,2018-06-25T09:29:45Z,1224 State St,Fast Food,Schenectady,US,us/ny/schenectady/1224statest/-1161002137,42.79792,-73.924364,McDonald's,12304,NY,McDonalds
2017-06-29T02:03:33Z,2018-06-25T09:29:45Z,1232 Ulster Ave,Fast Food Restaurant,Kingston,US,us/ny/kingston/1232ulsterave/-1161002137,41.967079,-73.98858299999999,McDonald's,12401,NY,McDonalds
2017-06-19T14:50:03Z,2018-06-25T09:29:44Z,1188 Avenue of The Americas,Fast Food Restaurant,New York,US,us/ny/newyork/1188avenueoftheamericas/-1161002137,40.757558,-73.98167099999999,McDonald's,10036,NY,McDonalds
2017-06-19T14:53:25Z,2018-06-25T09:29:43Z,114 Delancey St,Fast Food Restaurant,New York,US,us/ny/newyork/114delanceyst/-1161002137,40.718942999999996,-73.98830600000001,McDonald's,10002,NY,McDonalds
2017-06-19T14:52:24Z,2018-06-25T09:29:41Z,1050 Front St,Fast Food Restaurants,Uniondale,US,us/ny/uniondale/1050frontst/-1161002137,40.709646,-73.591453,McDonald's,11553,NY,McDonalds
2016-03-21T01:37:59Z,2018-06-25T09:29:41Z,105 Jericho Tpke,Fast Food,Jericho,US,us/ny/jericho/105jerichotpke/-1161002137,40.780233,-73.55934,McDonald's,11753,NY,McDonalds
2017-06-19T15:24:34Z,2018-06-25T09:29:41Z,106 Wolf Rd,Fast Food Restaurants,Albany,US,us/ny/albany/106wolfrd/-1161002137,42.716812,-73.80931899999999,McDonald's,12205,NY,McDonalds
2014-02-03T04:12:36Z,2018-06-25T09:29:40Z,101 E 170th St,Fast Food,Bronx,US,us/ny/bronx/101e170thst/-1161002137,40.839569,-73.915927,McDonald's,10452,NY,McDonalds
2016-05-05T12:44:43Z,2018-06-25T09:29:40Z,103 Brookview Dr,Fast Food,Schenectady,US,us/ny/schenectady/103brookviewdr/-1161002137,42.741061,-73.913673,McDonald's,12303,NY,McDonalds
2017-06-19T15:29:59Z,2018-06-25T09:29:40Z,1028 Mckinley Pkwy,Fast Food Restaurants,Buffalo,US,us/ny/buffalo/1028mckinleypkwy/-1161002137,42.857898999999996,-78.825089,McDonald's,14220,NY,McDonalds
2016-03-31T02:46:48Z,2018-06-25T09:29:39Z,10 Main St,Fast Food Restaurants,Tonawanda,US,us/ny/tonawanda/10mainst/-1161002137,43.021019,-78.878167,McDonald's,14150,NY,McDonalds
2015-11-06T10:16:28Z,2018-06-25T09:29:38Z,300 Mishawum Rd,Fast Food,Woburn,US,us/ma/woburn/300mishawumrd/-1161002137,42.503903,-71.13274799999999,McDonald's,1801,MA,McDonalds
2016-03-29T04:48:40Z,2018-06-25T09:29:37Z,1190 Providence Rd,Fast Food Restaurant,Whitinsville,US,us/ma/whitinsville/1190providencerd/-1161002137,42.125526,-71.64591300000001,McDonald's,1588,MA,McDonalds
2016-03-29T04:41:38Z,2018-06-25T09:29:37Z,212 Main St,Fast Food,Wilmington,US,us/ma/wilmington/212mainst/-1161002137,42.557448,-71.181499,McDonald's,1887,MA,McDonalds
2015-07-19T21:00:43Z,2018-06-25T09:29:36Z,44 E Main St,Fast Food,Webster,US,us/ma/webster/44emainst/-1161002137,42.055826,-71.873999,McDonald's,1570,MA,McDonalds
2016-06-08T16:14:30Z,2018-06-25T09:29:36Z,789 Main St,Fast Food,Waltham,US,us/ma/waltham/789mainst/-1161002137,42.376247,-71.241667,McDonald's,2451,MA,McDonalds
2015-10-26T23:05:16Z,2018-06-25T09:29:35Z,20 Main St,Fast Food Restaurant,Townsend,US,us/ma/townsend/20mainst/-1161002137,42.650503,-71.662674,McDonald's,1469,MA,McDonalds
2015-11-30T18:17:51Z,2018-06-25T09:29:35Z,595 Main St,Fast Food Restaurant,Walpole,US,us/ma/walpole/595mainst/-1161002137,42.157222,-71.243549,McDonald's,2081,MA,McDonalds
2016-03-28T05:34:12Z,2018-06-25T09:29:34Z,282 Winthrop St,Fast Food,Taunton,US,us/ma/taunton/282winthropst/-1161002137,41.88896,-71.120789,McDonald's,2780,MA,McDonalds
2015-11-05T18:48:11Z,2018-06-25T09:29:33Z,660 Liberty St,Fast Food,Springfield,US,us/ma/springfield/660libertyst/-1161002137,42.12193,-72.584242,McDonald's,1104,MA,McDonalds
2015-11-05T18:38:03Z,2018-06-25T09:29:33Z,360 Main St,Fast Food Restaurants,Springfield,US,us/ma/springfield/360mainst/-1161002137,42.091561,-72.579647,McDonald's,1105,MA,McDonalds
2017-07-19T22:32:22Z,2018-06-25T09:29:33Z,2392 Main St,Fast Food Restaurants,Springfield,US,us/ma/springfield/2392mainst/-1161002137,42.111552,-72.603359,McDonald's,1107,MA,McDonalds
2015-11-30T18:25:40Z,2018-06-25T09:29:33Z,1402 Allen St,Fast Food Restaurant,Springfield,US,us/ma/springfield/1402allenst/-1161002137,42.095053,-72.512539,McDonald's,1118,MA,McDonalds
2016-03-30T04:26:33Z,2018-06-25T09:29:33Z,1610 Boston Rd,Fast Food Restaurants,Springfield,US,us/ma/springfield/1610bostonrd/-1161002137,42.142989,-72.48923,McDonald's,1129,MA,McDonalds
2015-12-02T19:41:17Z,2018-06-25T09:29:33Z,59 W Main St,Fast Food,Spencer,US,us/ma/spencer/59wmainst/-1161002137,42.23341,-72.012516,McDonald's,1562,MA,McDonalds
2016-03-24T10:25:24Z,2018-06-25T09:28:10Z,1601 W Kirby St,Fast Food Restaurant and Mexican Restaurant,Wylie,US,us/tx/wylie/1601wkirbyst/-864103396,33.007329,-96.55412700000001,Taco Bell,75098,TX,Taco Bell
2016-06-20T17:25:26Z,2018-06-25T09:28:08Z,7425 S Broadway Ave,Fast Food Restaurant,Tyler,US,us/tx/tyler/7425sbroadwayave/-864103396,32.274786,-95.30675699999999,Taco Bell,75703,TX,Taco Bell
2017-07-06T23:06:49Z,2018-06-25T09:27:52Z,100 Business Loop 70 E,Fast Food Restaurants,Columbia,US,us/mo/columbia/100businessloop70e/-2061630068,38.964944,-92.336364,Burger King,65203,MO,Burger King
2015-11-30T18:50:23Z,2018-06-25T09:26:55Z,615 Martin Luther King Jr Blvd,Fast Food Restaurant and Burger Joint,Savannah,US,us/ga/savannah/615martinlutherkingjrblvd/-791445730,32.070343,-81.10103199999999,Wendy's,31401,GA,Wendys
2016-05-15T21:09:26Z,2018-06-25T09:26:53Z,1123 Roswell Rd,Fast Food Restaurant and Burger Joint,Marietta,US,us/ga/marietta/1123roswellrd/-791445730,33.95111,-84.518962,Wendy's,30062,GA,Wendys
2016-04-30T08:27:34Z,2018-06-25T09:26:53Z,273 Keys Ferry St,Fast Food Restaurants,McDonough,US,us/ga/mcdonough/273keysferryst/-791445730,33.446887,-84.138326,Wendy's,30253,GA,Wendys
2015-10-20T00:52:56Z,2018-06-25T09:26:53Z,1117 W Spring St,Fast Food Restaurant,Monroe,US,us/ga/monroe/1117wspringst/-791445730,33.792747999999996,-83.731443,Wendy's,30655,GA,Wendys
2015-10-23T01:54:00Z,2018-06-25T09:26:53Z,430 S Belair Rd,Fast Food Restaurants,Augusta,US,us/ga/augusta/430sbelairrd/-791445730,33.486344,-82.13351,Wendy's,30907,GA,Wendys
2016-04-05T03:02:37Z,2018-06-25T09:26:53Z,2341 N Columbia St,Fast Food Restaurant,Milledgeville,US,us/ga/milledgeville/2341ncolumbiast/-791445730,33.108582,-83.254192,Wendy's,31061,GA,Wendys
2015-11-28T18:16:09Z,2018-06-25T09:26:52Z,260 Cooper Rd,Fast Food Restaurant and Burger Joint,Loganville,US,us/ga/loganville/260cooperrd/-791445730,33.880381,-83.939657,Wendy's,30052,GA,Wendys
2016-03-21T01:38:20Z,2018-06-25T09:26:52Z,4331 Atlanta Hwy,Fast Food Restaurant,Loganville,US,us/ga/loganville/4331atlantahwy/-791445730,33.839726,-83.905798,Wendy's,30052,GA,Wendys
2015-11-02T15:44:53Z,2018-06-25T09:26:51Z,3015 Panola Rd,Fast Food Restaurant,Lithonia,US,us/ga/lithonia/3015panolard/-791445730,33.699521999999995,-84.17274,Wendy's,30038,GA,Wendys
2016-03-28T05:51:17Z,2018-06-25T09:01:05Z,184 Endicott St,Fast food restaurants,Danvers,US,us/ma/danvers/184endicottst/-2061630068,42.547923,-70.942014,Burger King,1923,MA,Burger King
2017-06-27T05:04:00Z,2018-06-25T09:01:01Z,6134 State Route 14,Fast Food Restaurant,Ravenna,US,us/oh/ravenna/6134stateroute14/-1161002137,41.157059000000004,-81.219054,McDonald's,44266,OH,McDonalds
2016-03-26T04:52:32Z,2018-06-25T09:00:55Z,2992 Jamacha Rd,Fast Food,El Cajon,US,us/ca/elcajon/2992jamachard/-2061630068,32.739923,-116.94215600000001,Burger King,92019,CA,Burger King
2014-10-26T13:04:15Z,2018-06-25T09:00:55Z,822 N Johnson Ave,Fast food restaurants,El Cajon,US,us/ca/elcajon/822njohnsonave/-2061630068,32.805945,-116.971542,Burger King,92020,CA,Burger King
2017-07-18T03:04:11Z,2018-06-25T09:00:41Z,242 N El Camino Real,Fast food restaurants,Encinitas,US,us/ca/encinitas/242nelcaminoreal/-2061630068,33.051949,-117.260994,Burger King,92024,CA,Burger King
2016-06-05T20:57:34Z,2018-06-25T09:00:32Z,7011 Barker Cypress Rd,Fast Food Restaurant and Burger Joint,Cypress,US,us/tx/cypress/7011barkercypressrd/-2061630068,29.880809999999997,-95.683922,Burger King,77433,TX,Burger King
2016-04-03T02:39:39Z,2018-06-25T09:00:18Z,962 East Ave,Fast food restaurants,Chico,US,us/ca/chico/962eastave/-2061630068,39.76117,-121.84218700000001,Burger King,95926,CA,Burger King
2016-04-02T05:21:43Z,2018-06-25T09:00:10Z,1760 41st Ave,Fast Food Restaurant,Capitola,US,us/ca/capitola/176041stave/-1161002137,36.975287,-121.96392900000001,McDonald's,95010,CA,McDonalds
2017-07-21T15:49:05Z,2018-06-25T09:00:02Z,562 N Main St,Fast Food Restaurant,Bishop,US,us/ca/bishop/562nmainst/-1161002137,37.365314,-118.39508000000001,McDonald's,93514,CA,McDonalds
2016-04-04T03:33:16Z,2018-06-25T09:00:00Z,1310 E Lamar St,Fast Food Restaurants,Americus,US,us/ga/americus/1310elamarst/-1161002137,32.07128,-84.216974,McDonald's,31709,GA,McDonalds
2015-11-04T18:22:05Z,2018-06-25T08:59:54Z,2009 E Greenville St,Fast Food Restaurant,Anderson,US,us/sc/anderson/2009egreenvillest/-2061630068,34.54701,-82.6319,Burger King,29621,SC,Burger King
2016-04-01T06:35:19Z,2018-06-25T08:59:41Z,328 N Main St,Fast Food Restaurants,Cedartown,US,us/ga/cedartown/328nmainst/-1161002137,34.017911,-85.253614,McDonald's,30125,GA,McDonalds
2015-12-13T19:54:24Z,2018-06-25T08:59:38Z,3025 Main St,Fast food restaurants,Glastonbury,US,us/ct/glastonbury/3025mainst/-2061630068,41.726353,-72.61760799999999,Burger King,6033,CT,Burger King
2016-11-02T17:17:26Z,2018-06-25T08:59:35Z,605 E Broadway St,Fast Food Restaurant,Campbellsville,US,us/ky/campbellsville/605ebroadwayst/-1161002137,37.346447,-85.33736800000001,McDonald's,42718,KY,McDonalds
2016-04-05T02:42:52Z,2018-06-25T08:59:35Z,1602 E Broadway St,Fast Food Restaurant,Campbellsville,US,us/ky/campbellsville/1602ebroadwayst/-891525969,37.357213,-85.323654,SUBWAY,42718,KY,Subway
2015-10-23T03:00:17Z,2018-06-25T08:59:26Z,1475 Holiday Ln,Fast food restaurants,Fairfield,US,us/ca/fairfield/1475holidayln/-2061630068,38.259527,-122.062146,Burger King,94534,CA,Burger King
2015-10-20T00:11:35Z,2018-06-25T08:59:06Z,11671 Se Federal Hwy,Fast Food Restaurant,Hobe Sound,US,us/fl/hobesound/11671sefederalhwy/-1161002137,27.06168,-80.13746,McDonald's,33455,FL,McDonalds
2017-06-23T05:21:12Z,2018-06-25T08:59:04Z,825 E 49th St,Fast food restaurants,Hialeah,US,us/fl/hialeah/825e49thst/-2061630068,25.867613000000002,-80.266376,Burger King,33013,FL,Burger King
2016-11-06T04:38:54Z,2018-06-25T08:58:51Z,2370 US Highway 331 S,Fast food restaurants,DeFuniak Springs,US,us/fl/defuniaksprings/2370ushighway331s/-1161002137,30.687820000000002,-86.12318,McDonald's,32435,FL,McDonalds
2015-10-19T07:55:55Z,2018-06-25T08:58:44Z,865 S Main St,Fast Food Restaurant,Belle Glade,US,us/fl/belleglade/865smainst/-864103396,26.675109999999997,-80.67,Taco Bell,33430,FL,Taco Bell
2016-11-02T17:16:40Z,2018-06-25T08:58:40Z,339 US Highway 27 S,Fast Food Restaurant,Avon Park,US,us/fl/avonpark/339ushighway27s/-1161002137,27.596742,-81.494029,McDonald's,33825,FL,McDonalds
2015-10-23T02:26:36Z,2018-06-25T08:58:36Z,460 Airways Ave,Fast Food Restaurant,Savannah,US,us/ga/savannah/460airwaysave/-2061630068,32.135603,-81.20824300000001,Burger King,31408,GA,Burger King
2017-07-24T20:51:53Z,2018-06-25T08:58:30Z,2613 Central Ave,Fast Food Restaurants,Dodge City,US,us/ks/dodgecity/2613centralave/-1161002137,37.77885,-100.01663,McDonald's,67801,KS,McDonalds
2015-07-18T18:06:50Z,2018-06-25T08:58:28Z,2501 Se Delaware Ave,Fast Food Restaurant,Ankeny,US,us/ia/ankeny/2501sedelawareave/-2061630068,41.704627,-93.580975,Burger King,50021,IA,Burger King
2016-04-04T05:19:32Z,2018-06-25T08:58:27Z,2817 E 13th St,Fast Food Restaurants,Ames,US,us/ia/ames/2817e13thst/-2061630068,42.035109999999996,-93.57344,Burger King,50010,IA,Burger King
2016-04-02T05:23:13Z,2018-06-25T08:58:27Z,1020 E 1st St,Fast Food Restaurant,Ankeny,US,us/ia/ankeny/1020e1stst/-2061630068,41.732374,-93.582329,Burger King,50021,IA,Burger King
2015-10-20T00:36:53Z,2018-06-25T08:58:25Z,1807 N Church St,Fast food restaurants,Burlington,US,us/nc/burlington/1807nchurchst/-2061630068,36.09503,-79.408,Burger King,27217,NC,Burger King
2016-03-28T05:43:23Z,2018-06-25T08:58:21Z,9320 Steele Creek Rd,Fast Food Restaurant,Charlotte,US,us/nc/charlotte/9320steelecreekrd/-1161002137,35.16361,-80.96889,McDonald's,28273,NC,McDonalds
2016-03-29T05:14:26Z,2018-06-25T08:58:19Z,9640 Mariposa Rd,Fast Food Restaurant,Hesperia,US,us/ca/hesperia/9640mariposard/-2061630068,34.425812,-117.378018,Burger King,92344,CA,Burger King
2016-03-29T05:14:27Z,2018-06-25T08:58:19Z,17021 Main St,Fast food restaurants,Hesperia,US,us/ca/hesperia/17021mainst/-2061630068,34.419638,-117.291579,Burger King,92345,CA,Burger King
2017-11-21T07:32:53Z,2018-06-25T08:58:08Z,300 Mccarter Rd,Fast Food Restaurants,Fountain Inn,US,us/sc/fountaininn/300mccarterrd/-1161002137,34.685340000000004,-82.19726999999999,McDonald's,29644,SC,McDonalds
2017-06-27T05:54:03Z,2018-06-25T08:58:07Z,2040 Cumberland St,Fast Food Restaurant,Lebanon,US,us/pa/lebanon/2040cumberlandst/-2061630068,40.33873,-76.447826,Burger King,17042,PA,Burger King
2016-11-14T02:12:19Z,2018-06-25T08:58:06Z,609 Naamans Rd,Fast Food Restaurants,Claymont,US,us/de/claymont/609naamansrd/-864103396,39.81718,-75.45715,Taco Bell,19703,DE,Taco Bell
2017-07-20T08:59:43Z,2018-06-25T08:57:57Z,1205 Commons Cir,Fast Food Restaurants,Plover,US,us/wi/plover/1205commonscir/-1161002137,44.49541,-89.51668000000001,McDonald's,54467,WI,McDonalds
2017-06-30T05:05:48Z,2018-06-25T08:57:39Z,3001 N Reynolds Rd,Fast Food Restaurant,Bryant,US,us/ar/bryant/3001nreynoldsrd/-2061630068,34.623419,-92.499052,Burger King,72022,AR,Burger King
2015-10-23T03:28:22Z,2018-06-25T08:57:37Z,2275 E Butler Ave,Fast Food Restaurants,Flagstaff,US,us/az/flagstaff/2275ebutlerave/-2061630068,35.192109,-111.624197,Burger King,86004,AZ,Burger King
2017-09-05T23:05:09Z,2018-06-25T08:57:23Z,Route 52 Airport Square,Fast Food Restaurants,Bluefield,US,us/wv/bluefield/route52airportsquare/-2061630068,37.28415,-81.25128000000001,Burger King,24701,WV,Burger King
2017-07-24T21:35:25Z,2018-06-25T08:57:12Z,3 Clarksburg Rd,Fast Food Restaurants,Buckhannon,US,us/wv/buckhannon/3clarksburgrd/-2061630068,38.997749,-80.233242,Burger King,26201,WV,Burger King
2015-10-24T00:02:19Z,2018-06-25T08:57:09Z,1902 Mountain View Dr,Fast Food Restaurant,Cody,US,us/wy/cody/1902mountainviewdr/-2061630068,44.514590000000005,-109.05084,Burger King,82414,WY,Burger King
2017-07-19T17:41:14Z,2018-06-25T08:56:57Z,310 W Grand Xing,Fast Food Restaurants,Mobridge,US,us/sd/mobridge/310wgrandxing/-891525969,45.53751,-100.43688,SUBWAY,57601,SD,Subway
2015-11-06T09:51:18Z,2018-06-25T08:56:53Z,2260 Highway 394,Fast Food Restaurant,Blountville,US,us/tn/blountville/2260highway394/-1161002137,36.524041,-82.31270699999999,McDonald's,37617,TN,McDonalds
2016-12-13T03:41:23Z,2018-06-25T08:56:53Z,214 Carolina Pottery Dr,Fast food restaurants,Blountville,US,us/tn/blountville/214carolinapotterydr/-1161002137,36.534114,-82.39005300000001,McDonald's,37617,TN,McDonalds
2016-03-23T04:15:54Z,2018-06-25T08:56:52Z,100 Prince Royal Dr,Fast Food Restaurants,Berea,US,us/ky/berea/100princeroyaldr/-2061630068,37.568606,-84.31104599999999,Burger King,40403,KY,Burger King
2015-10-23T22:47:59Z,2018-06-25T08:56:46Z,23777 Us Route 23,Fast Food Restaurant,Circleville,US,us/oh/circleville/23777usroute23/-2061630068,39.58426871,-82.95390414,Burger King,43113,OH,Burger King
2017-07-19T21:50:35Z,2018-06-25T08:56:44Z,414 Water St,Fast food restaurants,Chardon,US,us/oh/chardon/414waterst/-2061630068,41.580901000000004,-81.21016800000001,Burger King,44024,OH,Burger King
2017-07-23T03:30:11Z,2018-06-25T08:56:43Z,2005 S Main St,Fast Food Restaurant,Bellefontaine,US,us/oh/bellefontaine/2005smainst/-2061630068,40.331939,-83.761451,Burger King,43311,OH,Burger King
2017-07-19T22:07:11Z,2018-06-25T08:56:37Z,2000 E Edgerton Rd,Fast Food Restaurants,Broadview Heights,US,us/oh/broadviewheights/2000eedgertonrd/-2061630068,41.29553,-81.67674,Burger King,44147,OH,Burger King
2015-10-23T22:50:09Z,2018-06-25T08:56:37Z,10037 Broadview Rd,Fast Food Restaurant,Broadview Heights,US,us/oh/broadviewheights/10037broadviewrd/-2061630068,41.293022,-81.68467,Burger King,44147,OH,Burger King
2017-07-03T16:39:48Z,2018-06-25T08:56:27Z,2680 Market St,Fast Food Restaurant,Christiansburg,US,us/va/christiansburg/2680marketst/-2061630068,37.16537,-80.422283,Burger King,24073,VA,Burger King
2015-10-23T01:53:59Z,2018-06-25T08:56:21Z,1004 S Main St,Fast food restaurants,Farmville,US,us/va/farmville/1004smainst/-2061630068,37.289041,-78.397491,Burger King,23901,VA,Burger King
2015-10-28T16:20:09Z,2018-06-25T08:56:02Z,3120 W Fm 120,Fast Food Restaurants,Denison,US,us/tx/denison/3120wfm120/-2061630068,33.762134,-96.581587,Burger King,75020,TX,Burger King
2016-02-26T13:03:20Z,2018-06-25T08:56:00Z,1705 Expressway 83,Fast Food Restaurants,Penitas,US,us/tx/penitas/1705expressway83/-1161002137,26.243395,-98.4423,McDonald's,78576,TX,McDonalds
2015-10-28T16:28:13Z,2018-06-25T08:55:59Z,2280 E Garrison St,Fast Food Restaurant,Eagle Pass,US,us/tx/eaglepass/2280egarrisonst/-2061630068,28.705740000000002,-100.48395,Burger King,78852,TX,Burger King
2016-03-28T05:53:16Z,2018-06-25T08:55:54Z,2208 Highway 21 E,Fast Food Restaurant,Bryan,US,us/tx/bryan/2208highway21e/-2061630068,30.69488984,-96.36236943,Burger King,77803,TX,Burger King
2016-03-26T04:07:53Z,2018-06-25T08:55:46Z,5301 Bellaire Blvd,Fast Food Restaurant and Burger Joint,Bellaire,US,us/tx/bellaire/5301bellaireblvd/-2061630068,29.70529415,-95.4730184,Burger King,77401,TX,Burger King
2016-07-18T20:27:57Z,2018-06-25T08:55:35Z,1890 Bethlehem Pike,Fast Food Restaurant and Playground,Flourtown,US,us/pa/flourtown/1890bethlehempike/-1161002137,40.111177000000005,-75.21414399999999,McDonald's,19031,PA,McDonalds
2015-10-23T02:35:10Z,2018-06-25T08:55:26Z,6385 Dobbin Rd,Fast food restaurants,Columbia,US,us/md/columbia/6385dobbinrd/-1161002137,39.196115999999996,-76.82101,McDonald's,21045,MD,McDonalds
2015-11-06T09:52:06Z,2018-06-25T08:55:26Z,6241 Washington Blvd,Fast Food Restaurant,Elkridge,US,us/md/elkridge/6241washingtonblvd/-2061630068,39.208926,-76.724769,Burger King,21075,MD,Burger King
2015-12-02T19:26:53Z,2018-06-25T08:55:15Z,285 Jamesway Rd,Fast Food Restaurants,Ebensburg,US,us/pa/ebensburg/285jameswayrd/-2061630068,40.47425,-78.74575,Burger King,15931,PA,Burger King
2017-07-19T22:13:24Z,2018-06-25T08:55:03Z,4868 Houston Rd,Fast Food Restaurant,Florence,US,us/ky/florence/4868houstonrd/-2061630068,39.019712,-84.628729,Burger King,41042,KY,Burger King
2015-10-20T02:26:27Z,2018-06-25T08:55:01Z,105 S 3rd St,Fast Food Restaurant and Burger Joint,Coopersburg,US,us/pa/coopersburg/105s3rdst/-2061630068,40.509285999999996,-75.385827,Burger King,18036,PA,Burger King
2017-07-07T13:11:14Z,2018-06-25T08:54:51Z,1208 W Front St,Fast Food Restaurants,Berwick,US,us/pa/berwick/1208wfrontst/-2061630068,41.049741,-76.252443,Burger King,18603,PA,Burger King
2016-04-02T05:20:50Z,2018-06-25T08:54:35Z,9 Hudson Hollow Rd,Fast Food Restaurant,Frankfort,US,us/ky/frankfort/9hudsonhollowrd/-2061630068,38.178962,-84.89459599999999,Burger King,40601,KY,Burger King
2017-07-06T01:49:42Z,2018-06-25T08:53:51Z,2460 Mountain City Hwy,Fast Food Restaurants,Elko,US,us/nv/elko/2460mountaincityhwy/-2061630068,40.83757,-115.78953999999999,Burger King,89801,NV,Burger King
2016-04-04T03:21:35Z,2018-06-25T08:53:49Z,313 Middle Country Rd,Fast food restaurants,Coram,US,us/ny/coram/313middlecountryrd/-1161002137,40.869655,-72.99981700000001,McDonald's,11727,NY,McDonalds
2018-01-18T18:33:00Z,2018-06-25T08:53:38Z,778 Brookway Blvd,Fast Food Restaurant,Brookhaven,US,us/ms/brookhaven/778brookwayblvd/-2061630068,31.579563,-90.459029,Burger King,39601,MS,Burger King
2017-06-19T14:48:53Z,2018-06-25T08:53:26Z,1104 Sunrise Hwy,Fast food restaurants,Amityville,US,us/ny/amityville/1104sunrisehwy/-2061630068,40.689896000000005,-73.408119,Burger King,11701,NY,Burger King
2015-11-29T18:21:10Z,2018-06-25T07:50:30Z,425 E Main St,Fast Food Restaurant,Pickens,US,us/sc/pickens/425emainst/-1161002137,34.884512,-82.70476,McDonald's,29671,SC,McDonalds
2015-10-23T03:00:26Z,2018-06-25T07:50:27Z,106 Garner Rd,Fast Food,Spartanburg,US,us/sc/spartanburg/106garnerrd/-1161002137,34.966901,-81.929552,McDonald's,29303,SC,McDonalds
2016-03-30T04:25:28Z,2018-06-25T07:48:52Z,2619 Brandermill Blvd,Fast Food Restaurant and Burger Joint,Gambrills,US,us/md/gambrills/2619brandermillblvd/-2061630068,39.037925,-76.678372,Burger King,21054,MD,Burger King
2017-07-20T14:40:51Z,2018-06-25T07:45:18Z,613 E 4th Ave,Fast Food Restaurant,Red Springs,US,us/nc/redsprings/613e4thave/-1161002137,34.811406,-79.174756,McDonald's,28377,NC,McDonalds
2015-10-23T02:49:49Z,2018-06-24T02:22:38Z,45201 Schoenherr Rd,Fast Food Restaurant,Utica,US,us/mi/utica/45201schoenherrrd/-864103396,42.62877,-82.993912,Taco Bell,48315,MI,Taco Bell
2015-10-24T00:16:13Z,2018-06-24T02:22:35Z,3860 S State Rd,Fast Food Restaurants,Ann Arbor,US,us/mi/annarbor/3860sstaterd/-864103396,42.230907,-83.739813,Taco Bell,48108,MI,Taco Bell
2016-03-30T04:13:18Z,2018-06-24T02:22:22Z,9640 Hageman Rd,Fast Food Restaurants,Bakersfield,US,us/ca/bakersfield/9640hagemanrd/-864103396,35.398432,-119.10936399999999,Taco Bell,93312,CA,Taco Bell
2017-07-24T21:31:16Z,2018-06-24T02:22:11Z,32940 Michigan Ave,Fast Food Restaurant,Wayne,US,us/mi/wayne/32940michiganave/-864103396,42.283657,-83.36389799999999,Taco Bell,48184,MI,Taco Bell
2017-07-18T03:04:38Z,2018-06-24T02:21:47Z,35 White St,Fast Food,Cambridge,US,us/ma/cambridge/35whitest/-1161002137,42.389162,-71.11789,McDonald's,2140,MA,McDonalds
2016-03-27T14:49:46Z,2018-06-24T02:21:42Z,340 Longwood Ave,Fast Food Restaurants,Boston,US,us/ma/boston/340longwoodave/-1161002137,42.338242,-71.106394,McDonald's,2115,MA,McDonalds
2016-04-02T05:38:58Z,2018-06-24T02:21:40Z,2306 Dix Hwy,Fast Food Restaurant and Mexican Restaurant,Lincoln Park,US,us/mi/lincolnpark/2306dixhwy/-864103396,42.25059,-83.19532199999999,Taco Bell,48146,MI,Taco Bell
2017-07-24T20:57:54Z,2018-06-24T02:21:31Z,1108 Lincoln Way East,Fast Food,Massillon,US,us/oh/massillon/1108lincolnwayeast/-864103396,40.80019,-81.511421,Taco Bell,44646,OH,Taco Bell
2017-06-30T02:09:38Z,2018-06-24T02:21:24Z,705 York Road,Fast Food,Kings Mountain,US,us/nc/kingsmountain/705yorkroad/-864103396,35.231412,-81.332652,Taco Bell,28086,NC,Taco Bell
2016-06-04T19:47:29Z,2018-06-23T09:44:12Z,1737 N University Ave,Fast Food Restaurants,Lafayette,US,us/la/lafayette/1737nuniversityave/-1161002137,30.252668,-92.037149,McDonald's,70507,LA,McDonalds
2015-10-24T00:13:30Z,2018-06-23T09:44:10Z,249 E State St,Fast Food Restaurants,Montrose,US,us/mi/montrose/249estatest/-1161002137,43.176212,-83.887437,McDonald's,48457,MI,McDonalds
2015-10-23T02:51:21Z,2018-06-23T09:43:41Z,8010 Sudley Rd,Fast Food Restaurant,Manassas,US,us/va/manassas/8010sudleyrd/-791445730,38.781659999999995,-77.51244,Wendy's,20109,VA,Wendys
2015-11-07T12:18:17Z,2018-06-22T18:39:30Z,1211 Joe Frank Harris Pkwy SE,Fast Food Restaurants,Cartersville,US,us/ga/cartersville/1211joefrankharrispkwyse/-891525969,34.203844000000004,-84.809281,Subway,30120,GA,Subway
2016-03-21T01:39:40Z,2018-06-22T18:39:26Z,192 Lovvorn Ave,Fast Food Restaurants,Bowdon,US,us/ga/bowdon/192lovvornave/-891525969,33.538661,-85.25191600000001,Subway,30108,GA,Subway
2015-10-19T23:00:39Z,2018-06-22T18:39:20Z,1637 Liberty Expy SE,Fast Food Restaurants,Albany,US,us/ga/albany/1637libertyexpyse/-891525969,31.499615999999996,-84.115596,Subway,31705,GA,Subway
2016-03-21T01:38:26Z,2018-06-22T18:39:19Z,1103 N Westover Blvd,Fast Food Restaurant,Albany,US,us/ga/albany/1103nwestoverblvd/-891525969,31.620486,-84.220416,Subway,31707,GA,Subway
2017-07-20T21:20:32Z,2018-06-22T18:38:29Z,631 Hogan Rd,Fast Food Restaurant,Bangor,US,us/me/bangor/631hoganrd/-2061630068,44.835640000000005,-68.742387,Burger King,4401,ME,Burger King
2016-11-02T14:14:18Z,2018-06-22T18:38:17Z,758 W Dixie Dr,Fast Food Restaurant,Asheboro,US,us/nc/asheboro/758wdixiedr/-2061630068,35.6876,-79.82614000000001,Burger King,27205,NC,Burger King
2016-02-26T13:41:13Z,2018-06-22T18:38:11Z,1641 S Jefferson Ave,Fast Food Restaurants,Saint Louis,US,us/mo/saintlouis/1641sjeffersonave/-891525969,38.615623,-90.221252,SUBWAY¬Æ,63104,MO,Subway
2015-11-25T18:59:13Z,2018-06-22T18:37:16Z,35 Manchester Rd,Fast Food Restaurant and Burger Joint,Derry,US,us/nh/derry/35manchesterrd/-2061630068,42.900371,-71.33503,Burger King,3038,NH,Burger King
2017-07-19T17:42:27Z,2018-06-22T18:37:09Z,195 Woodstock Ave,Fast Food Restaurant,Rutland,US,us/vt/rutland/195woodstockave/-1161002137,43.618244,-72.957313,McDonald's,5701,VT,McDonalds
2014-02-01T04:48:05Z,2018-06-22T18:37:05Z,1155 N Hill Field Rd,Fast Food,Layton,US,us/ut/layton/1155nhillfieldrd/-1161002137,41.077026000000004,-111.973568,McDonald's,84041,UT,McDonalds
2017-07-23T03:24:48Z,2018-06-22T18:37:00Z,41 Jayview Dr,Fast Food Restaurants,Enosburg Falls,US,us/vt/enosburgfalls/41jayviewdr/-1161002137,44.913112,-72.796661,McDonald's,5450,VT,McDonalds
2017-07-20T14:55:43Z,2018-06-22T18:36:49Z,155 Dorset St,Fast Food,South Burlington,US,us/vt/southburlington/155dorsetst/-1161002137,44.464893,-73.184211,McDonald's,5403,VT,McDonalds
2017-07-20T14:55:43Z,2018-06-22T18:36:48Z,1125 Shelburne Rd,Fast Food Restaurants,South Burlington,US,us/vt/southburlington/1125shelburnerd/-1161002137,44.437629,-73.210838,McDonald's,5403,VT,McDonalds
2017-07-23T03:25:41Z,2018-06-22T18:36:47Z,71 Upper Main St,Fast Food Restaurant,Essex Junction,US,us/vt/essexjunction/71uppermainst/-1161002137,44.507366,-73.086501,McDonald's,5452,VT,McDonalds
2017-07-20T09:03:03Z,2018-06-22T18:36:44Z,44 S Park Dr,Fast Food Restaurant,Colchester,US,us/vt/colchester/44sparkdr/-1161002137,44.503345,-73.1809,McDonald's,5446,VT,McDonalds
2015-10-23T23:58:42Z,2018-06-22T18:36:38Z,916 W North Temple,Fast Food Restaurant Fairpark,Salt Lake City,US,us/ut/saltlakecity/916wnorthtemple/-1161002137,40.771496,-111.91753200000001,McDonald's,84116,UT,McDonalds
2017-07-03T16:24:22Z,2018-06-22T18:36:34Z,909 W Riverdale Rd,Fast Food Restaurants,Ogden,US,us/ut/ogden/909wriverdalerd/-1161002137,41.178295,-112.000468,McDonald's,84405,UT,McDonalds
2016-03-31T02:20:34Z,2018-06-22T18:36:33Z,211 W 1230 N,Fast Food Restaurant,Provo,US,us/ut/provo/211w1230n/-1161002137,40.250567,-111.662228,McDonald's,84604,UT,McDonalds
2017-06-19T15:57:28Z,2018-06-22T18:36:27Z,819 N Sullivan Rd,Fast Food Restaurants,Veradale,US,us/wa/veradale/819nsullivanrd/-1161002137,47.664944,-117.197199,McDonald's,99037,WA,McDonalds
2017-07-19T22:13:57Z,2018-06-22T18:36:23Z,902 S Main St,Fast Food Restaurants,Brigham City,US,us/ut/brighamcity/902smainst/-1161002137,41.491076,-112.016097,McDonald's,84302,UT,McDonalds
2015-09-21T08:46:16Z,2018-06-22T18:36:23Z,505 W Yelm Ave,Fast Food Restaurant,Yelm,US,us/wa/yelm/505wyelmave/-1161002137,46.944589,-122.612408,McDonald's,98597,WA,McDonalds
2017-07-06T18:57:14Z,2018-06-22T18:36:21Z,1600 E Chestnut Ave,Fast Food Restaurants,Yakima,US,us/wa/yakima/1600echestnutave/-1161002137,46.603108,-120.481796,McDonald's,98901,WA,McDonalds
2015-09-21T09:24:44Z,2018-06-22T18:36:20Z,5910 Summitview Ave,Fast Food,Yakima,US,us/wa/yakima/5910summitviewave/-1161002137,46.600035999999996,-120.586846,McDonald's,98908,WA,McDonalds
2015-10-23T02:31:09Z,2018-06-22T18:36:20Z,814 S 9th Ave,Fast Food Restaurants,Walla Walla,US,us/wa/wallawalla/814s9thave/-1161002137,46.056214000000004,-118.34606799999999,McDonald's,99362,WA,McDonalds
2015-09-21T09:00:11Z,2018-06-22T18:36:18Z,1601 Pacific Ave,Fast Food Restaurant,Woodland,US,us/wa/woodland/1601pacificave/-1161002137,45.910773,-122.746105,McDonald's,98674,WA,McDonalds
2017-07-19T21:54:27Z,2018-06-22T18:35:59Z,1084 S State Rd,Fast Food Restaurants,Davison,US,us/mi/davison/1084sstaterd/-2061630068,43.017621999999996,-83.517572,Burger King,48423,MI,Burger King
2016-04-01T06:28:42Z,2018-06-22T18:35:34Z,1313 N State St,Fast Food Restaurant,Belvidere,US,us/il/belvidere/1313nstatest/-1161002137,42.269137,-88.853432,McDonald's,61008,IL,McDonalds
2016-04-02T05:32:31Z,2018-06-22T18:35:33Z,681 N 12th St,Fast Food Restaurants,Breese,US,us/il/breese/681n12thst/-1161002137,38.619582,-89.530023,McDonald's,62230,IL,McDonalds
2017-07-23T03:27:52Z,2018-06-22T18:35:26Z,285 N Front St,Fast Food Restaurants,Braidwood,US,us/il/braidwood/285nfrontst/-1161002137,41.265584999999994,-88.208353,McDonald's,60408,IL,McDonalds
2016-03-26T04:54:04Z,2018-06-22T18:35:26Z,100 N Bolingbrook Dr,Fast Food Restaurant,Bolingbrook,US,us/il/bolingbrook/100nbolingbrookdr/-1161002137,41.698519,-88.068207,McDonald's,60440,IL,McDonalds
2016-04-02T05:30:06Z,2018-06-22T18:35:26Z,1180 N Kinzie Ave,Fast Food Restaurant,Bradley,US,us/il/bradley/1180nkinzieave/-1161002137,41.160051,-87.85108100000001,McDonald's,60915,IL,McDonalds
2015-10-19T17:01:52Z,2018-06-22T18:35:25Z,575 Main St NW,Fast Food Restaurants,Bourbonnais,US,us/il/bourbonnais/575mainstnw/-1161002137,41.159303,-87.886347,McDonald's,60914,IL,McDonalds
2016-03-25T03:03:12Z,2018-06-22T18:35:23Z,6401 Cermak Rd,Fast Food Restaurant,Berwyn,US,us/il/berwyn/6401cermakrd/-1161002137,41.850214,-87.783733,McDonald's,60402,IL,McDonalds
2016-03-25T03:03:26Z,2018-06-22T18:35:22Z,7181 Cermak Rd,Fast food restaurants,Berwyn,US,us/il/berwyn/7181cermakrd/-1161002137,41.849965999999995,-87.80297900000001,McDonald's,60402,IL,McDonalds
2016-04-01T06:28:40Z,2018-06-22T18:35:21Z,240 W Chrysler Dr,Fast Food Restaurant,Belvidere,US,us/il/belvidere/240wchryslerdr/-1161002137,42.240066,-88.841255,McDonald's,61008,IL,McDonalds
2016-04-05T02:37:10Z,2018-06-22T18:35:20Z,7301 Westfield Plaza Dr,Fast Food,Belleville,US,us/il/belleville/7301westfieldplazadr/-1161002137,38.545182000000004,-90.052155,McDonald's,62223,IL,McDonalds
2016-03-28T06:02:13Z,2018-06-22T18:35:19Z,1023 N Lake St,Fast Food,Aurora,US,us/il/aurora/1023nlakest/-1161002137,41.778876000000004,-88.315713,McDonald's,60506,IL,McDonalds
2016-03-27T14:39:43Z,2018-06-22T18:35:18Z,188 Fox Valley Ctr,Fast Food,Aurora,US,us/il/aurora/188foxvalleyctr/-1161002137,41.759701,-88.208402,McDonald's,60504,IL,McDonalds
2017-07-06T03:30:35Z,2018-06-22T18:35:15Z,1402 SE 3rd St,Fast Food Restaurants,Aledo,US,us/il/aledo/1402se3rdst/-1161002137,41.199464,-90.733615,McDonald's,61231,IL,McDonalds
2017-07-02T02:56:51Z,2018-06-22T18:35:13Z,500 E Algonquin Rd,Fast Food,Algonquin,US,us/il/algonquin/500ealgonquinrd/-1161002137,42.163979,-88.285165,McDonald's,60102,IL,McDonalds
2017-06-29T02:15:14Z,2018-06-22T18:35:12Z,125 S Randall Rd,Fast Food Restaurant,Algonquin,US,us/il/algonquin/125srandallrd/-1161002137,42.173932,-88.335286,McDonald's,60102,IL,McDonalds
2015-10-24T00:12:23Z,2018-06-22T18:35:07Z,148 Caldwell Blvd,Fast Food Restaurants,Nampa,US,us/id/nampa/148caldwellblvd/-1161002137,43.587291,-116.575061,McDonald's,83651,ID,McDonalds
2016-04-02T05:14:37Z,2018-06-22T18:35:00Z,178 S Eagle Rd,Fast Food Restaurants,Eagle,US,us/id/eagle/178seaglerd/-1161002137,43.693428000000004,-116.35355200000001,McDonald's,83616,ID,McDonalds
2016-04-05T02:23:07Z,2018-06-22T18:35:00Z,1335 S Washington Ave,Fast Food Restaurant,Emmett,US,us/id/emmett/1335swashingtonave/-1161002137,43.863452,-116.50008500000001,McDonald's,83617,ID,McDonalds
2017-07-20T15:52:49Z,2018-06-22T18:34:57Z,1750 Rostraver Rd,Fast Food Restaurants,Belle Vernon,US,us/pa/bellevernon/1750rostraverrd/-891525969,40.174915000000006,-79.806673,Subway,15012,PA,Subway
2017-07-19T15:29:53Z,2018-06-22T18:34:56Z,2693 Brodhead Rd,Fast Food Restaurants,Aliquippa,US,us/pa/aliquippa/2693brodheadrd/-891525969,40.588694,-80.260898,Subway,15001,PA,Subway
2015-10-24T00:14:17Z,2018-06-22T18:34:52Z,2900 Wendell Blvd,Fast Food Restaurants,Wendell,US,us/nc/wendell/2900wendellblvd/-1161002137,35.792697,-78.37903,McDonald's,27591,NC,McDonalds
2016-04-03T02:48:13Z,2018-06-22T18:34:51Z,2900 W 5th St,Fast Food,Lumberton,US,us/nc/lumberton/2900w5thst/-1161002137,34.62292,-79.047438,McDonald's,28358,NC,McDonalds
2018-01-23T05:45:40Z,2018-06-22T18:34:04Z,595 E Beasley Rd,Fast Food Restaurant,Jackson,US,us/ms/jackson/595ebeasleyrd/-1161002137,32.385436999999996,-90.147307,McDonald's,39206,MS,McDonalds
2018-01-18T06:22:31Z,2018-06-22T18:34:02Z,970 Cedar Lake Rd,Fast Food Restaurant,Biloxi,US,us/ms/biloxi/970cedarlakerd/-1161002137,30.446348999999998,-88.934148,McDonald's,39532,MS,McDonalds
2016-09-08T18:20:14Z,2018-06-22T18:34:01Z,9505 South Blvd,Fast Food Restaurant,Charlotte,US,us/nc/charlotte/9505southblvd/-1161002137,35.108263,-80.881511,McDonald's,28273,NC,McDonalds
2018-01-18T06:30:29Z,2018-06-22T18:34:00Z,937 Alabama St,Fast Food Restaurants,Columbus,US,us/ms/columbus/937alabamast/-1161002137,33.493277,-88.363825,McDonald's,39702,MS,McDonalds
2015-10-24T00:06:49Z,2018-06-22T18:33:59Z,930 Mall Loop Rd,Fast Food Restaurant,High Point,US,us/nc/highpoint/930malllooprd/-1161002137,35.989292999999996,-80.002751,McDonald's,27262,NC,McDonalds
2016-04-01T06:27:24Z,2018-06-22T18:33:58Z,8305 Creedmoor Rd,Fast Food Restaurant,Raleigh,US,us/nc/raleigh/8305creedmoorrd/-1161002137,35.900308,-78.681365,McDonald's,27613,NC,McDonalds
2016-06-20T20:02:25Z,2018-06-22T18:33:58Z,905 Louisiana Ave,Fast Food Restaurants,Libby,US,us/mt/libby/905louisianaave/-1161002137,48.387043,-115.55206299999999,McDonald's,59923,MT,McDonalds
2018-01-19T19:44:19Z,2018-06-22T18:33:56Z,6724 Highway 63,Fast Food Restaurant,Moss Point,US,us/ms/mosspoint/6724highway63/-1161002137,30.438931,-88.526545,McDonald's,39563,MS,McDonalds
2016-04-01T06:53:24Z,2018-06-22T18:33:52Z,812 Winston Rd,Fast Food Restaurant,Lexington,US,us/nc/lexington/812winstonrd/-1161002137,35.837286999999996,-80.253557,McDonald's,27295,NC,McDonalds
2017-06-19T15:34:16Z,2018-06-22T18:33:51Z,840 S Main St,Fast Food Restaurant,Kernersville,US,us/nc/kernersville/840smainst/-1161002137,36.110972,-80.089276,McDonald's,27284,NC,McDonalds
2016-04-04T04:06:24Z,2018-06-22T18:33:50Z,822 Wheat Dr,Fast Food,Bozeman,US,us/mt/bozeman/822wheatdr/-1161002137,45.698929,-111.04674399999999,McDonald's,59715,MT,McDonalds
2016-04-05T03:08:27Z,2018-06-22T18:33:43Z,717 Conover Blvd W,Fast Food Restaurants,Conover,US,us/nc/conover/717conoverblvdw/-1161002137,35.695895,-81.232175,McDonald's,28613,NC,McDonalds
2015-10-23T03:38:32Z,2018-06-22T18:33:43Z,720 E Broadway St,Fast Food Restaurant Heart of Missoula,Missoula,US,us/mt/missoula/720ebroadwayst/-1161002137,46.869446,-113.98503600000001,McDonald's,59802,MT,McDonalds
2017-07-19T21:56:28Z,2018-06-22T18:33:42Z,710 N Davis Ave,Fast Food Restaurants,Cleveland,US,us/ms/cleveland/710ndavisave/-1161002137,33.759524,-90.715742,McDonald's,38732,MS,McDonalds
2018-01-18T06:22:22Z,2018-06-22T18:33:40Z,692 Beach Blvd,Fast Food Restaurants,Biloxi,US,us/ms/biloxi/692beachblvd/-1161002137,30.393040000000003,-88.884899,McDonald's,39530,MS,McDonalds
2016-03-29T04:52:01Z,2018-06-22T18:33:39Z,65 Goodman Rd W,Fast Food Restaurants,Southaven,US,us/ms/southaven/65goodmanrdw/-1161002137,34.962709000000004,-89.990486,McDonald's,38671,MS,McDonalds
2017-06-19T15:58:42Z,2018-06-22T18:33:38Z,706 College Rd,Fast Food Restaurants,Greensboro,US,us/nc/greensboro/706collegerd/-1161002137,36.088625,-79.887872,McDonald's,27410,NC,McDonalds
2016-02-26T13:28:05Z,2018-06-22T18:33:37Z,701 Main St,Fast Food Restaurant,Scotland Neck,US,us/nc/scotlandneck/701mainst/-1161002137,36.126193,-77.42314300000001,McDonald's,27874,NC,McDonalds
2016-06-04T20:30:22Z,2018-06-22T18:33:35Z,6779 Raeford Rd,Fast Food Restaurants,Fayetteville,US,us/nc/fayetteville/6779raefordrd/-1161002137,35.03713,-79.00683199999999,McDonald's,28304,NC,McDonalds
2016-06-20T15:40:31Z,2018-06-22T18:33:33Z,6495 Us Highway 93 S,Fast Food Restaurant,Whitefish,US,us/mt/whitefish/6495ushighway93s/-1161002137,48.396122999999996,-114.334756,McDonald's,59937,MT,McDonalds
2016-03-28T15:00:14Z,2018-06-22T18:33:30Z,6225 W Sugar Creek Rd,Fast Food Restaurants,Charlotte,US,us/nc/charlotte/6225wsugarcreekrd/-1161002137,35.333436999999996,-80.798965,McDonald's,28269,NC,McDonalds
2015-10-23T03:09:35Z,2018-06-22T18:33:29Z,6301 Albemarle Rd,Fast Food Restaurant and Burger Joint,Charlotte,US,us/nc/charlotte/6301albemarlerd/-1161002137,35.203199,-80.73825,McDonald's,28212,NC,McDonalds
2016-04-05T03:55:57Z,2018-06-22T18:33:28Z,601 Jake Alexander Blvd W,Fast Food Restaurant and Gas Station,Salisbury,US,us/nc/salisbury/601jakealexanderblvdw/-1161002137,35.661995000000005,-80.50035799999999,McDonald's,28147,NC,McDonalds
2017-06-19T15:33:44Z,2018-06-22T18:33:27Z,5701 Inman Rd,Fast food restaurants,Greensboro,US,us/nc/greensboro/5701inmanrd/-1161002137,36.126014,-79.906582,McDonald's,27410,NC,McDonalds
2015-10-19T18:12:02Z,2018-06-22T18:33:26Z,5800 E Wt Harris Blvd,Fast Food,Charlotte,US,us/nc/charlotte/5800ewtharrisblvd/-1161002137,35.236497,-80.735822,McDonald's,28215,NC,McDonalds
2017-06-30T02:16:51Z,2018-06-22T18:32:59Z,1432 Cotton Grove Rd,Fast Food Restaurant,Lexington,US,us/nc/lexington/1432cottongroverd/-2061630068,35.786440999999996,-80.261414,Burger King,27292,NC,Burger King
2017-07-20T02:13:45Z,2018-06-22T18:32:59Z,401 Lincoln Hwy,Fast Food,Fairview Heights,US,us/il/fairviewheights/401lincolnhwy/-2061630068,38.592706,-89.97913,Burger King,62208,IL,Burger King
2016-06-18T20:38:49Z,2018-06-22T18:32:50Z,7197 Charles St,Fast Food Restaurant and Burger Joint,Rockford,US,us/il/rockford/7197charlesst/-2061630068,42.242137,-88.976027,Burger King,61112,IL,Burger King
2017-07-20T04:28:43Z,2018-06-22T18:32:50Z,100 Thomas Rd,Fast Food Restaurants,West Monroe,US,us/la/westmonroe/100thomasrd/-2061630068,32.517245,-92.157261,Burger King,71291,LA,Burger King
2015-11-19T22:21:34Z,2018-06-22T18:32:49Z,10440 Highland Rd,Fast Food Restaurant,Hartland,US,us/mi/hartland/10440highlandrd/-864103396,42.633792,-83.74529100000001,Taco Bell,48353,MI,Taco Bell
2015-10-23T00:56:48Z,2018-06-22T18:32:49Z,1138 E State St,"Fast Food Restaurant, Playground, and Burger Joint Northeast",Rockford,US,us/il/rockford/1138estatest/-2061630068,42.266918,-89.078393,Burger King,61104,IL,Burger King
2017-07-06T22:59:55Z,2018-06-22T18:32:48Z,421 N 36th St,Fast Food Restaurant,Quincy,US,us/il/quincy/421n36thst/-2061630068,39.935583,-91.358298,Burger King,62301,IL,Burger King
2016-03-29T05:01:45Z,2018-06-22T18:32:47Z,4121 Sauk Trl,Fast Food Restaurant,Richton Park,US,us/il/richtonpark/4121sauktrl/-2061630068,41.483933,-87.71654699999999,Burger King,60471,IL,Burger King
2017-07-06T23:40:42Z,2018-06-22T18:32:46Z,600 S Newport Rd,Fast Food Restaurant,Pontiac,US,us/il/pontiac/600snewportrd/-2061630068,40.873382,-88.66200699999999,Burger King,61764,IL,Burger King
2016-03-31T02:33:54Z,2018-06-22T18:32:43Z,10721 Jefferson Ave,Fast Food Restaurant and Burger Joint South Newport News,Newport News,US,us/va/newportnews/10721jeffersonave/-2061630068,37.051114,-76.460806,Burger King,23601,VA,Burger King
2017-07-19T21:53:05Z,2018-06-22T18:32:43Z,2901 Court St,Fast Food Restaurants,Pekin,US,us/il/pekin/2901courtst/-2061630068,40.551094,-89.60840300000001,Burger King,61554,IL,Burger King
2016-04-02T03:49:58Z,2018-06-22T18:32:41Z,2408 Stringtown Rd,Fast Food,Grove City,US,us/oh/grovecity/2408stringtownrd/-864103396,39.881314,-83.06760600000001,Taco Bell,43123,OH,Taco Bell
2017-07-23T03:34:45Z,2018-06-22T18:32:39Z,1 Marquette Ave,Fast Food Restaurants,Oglesby,US,us/il/oglesby/1marquetteave/-2061630068,41.293679,-89.071461,Burger King,61348,IL,Burger King
2017-07-19T22:42:18Z,2018-06-22T18:32:39Z,1717 Grass Valley Hwy,Fast Food,Auburn,US,us/ca/auburn/1717grassvalleyhwy/-864103396,38.927033,-121.08756799999999,Taco Bell,95603,CA,Taco Bell
2017-06-24T04:40:05Z,2018-06-22T18:32:38Z,370 M St,Fast Food Restaurant,Crescent City,US,us/ca/crescentcity/370mst/-864103396,41.755062,-124.19383400000001,Taco Bell,95531,CA,Taco Bell
2017-07-20T00:34:05Z,2018-06-22T18:32:37Z,2050 W Main St,Fast Food Restaurant,Turlock,US,us/ca/turlock/2050wmainst/-864103396,37.492303,-120.87260900000001,Taco Bell,95380,CA,Taco Bell
2017-07-19T21:56:32Z,2018-06-22T18:32:35Z,2700 Geer Rd,Fast Food,Turlock,US,us/ca/turlock/2700geerrd/-864103396,37.517764,-120.84839,Taco Bell,95382,CA,Taco Bell
2016-03-31T02:34:07Z,2018-06-22T18:32:33Z,1680 Hilliard Rome Rd,Fast Food,Hilliard,US,us/oh/hilliard/1680hilliardromerd/-864103396,39.985085,-83.150784,Taco Bell,43026,OH,Taco Bell
2016-10-18T21:19:10Z,2018-06-22T18:32:32Z,4652 Cemetery Rd,Fast Food,Hilliard,US,us/oh/hilliard/4652cemeteryrd/-864103396,40.031912,-83.141324,Taco Bell,43026,OH,Taco Bell
2017-07-06T23:45:42Z,2018-06-22T18:32:32Z,4601 Broadway St,Fast Food Restaurants,Mount Vernon,US,us/il/mountvernon/4601broadwayst/-2061630068,38.313427000000004,-88.945891,Burger King,62864,IL,Burger King
2017-07-08T06:10:50Z,2018-06-22T18:32:31Z,1410 Main St,Fast Food Restaurants,Hamilton,US,us/oh/hamilton/1410mainst/-864103396,39.423262,-84.593293,Taco Bell,45013,OH,Taco Bell
2017-07-19T21:52:29Z,2018-06-22T18:32:31Z,730 N Walnut St,Fast Food,Mount Carmel,US,us/il/mountcarmel/730nwalnutst/-2061630068,38.412503,-87.766489,Burger King,62863,IL,Burger King
2016-03-31T02:34:39Z,2018-06-22T18:32:30Z,294 S Hamilton Rd,Fast Food Restaurant,Columbus,US,us/oh/columbus/294shamiltonrd/-864103396,39.969056,-82.875638,Taco Bell,43230,OH,Taco Bell
2016-03-27T05:33:01Z,2018-06-22T18:32:29Z,1385 Douglas Rd,Fast Food,Montgomery,US,us/il/montgomery/1385douglasrd/-2061630068,41.726724,-88.319467,Burger King,60538,IL,Burger King
2017-07-19T21:52:28Z,2018-06-22T18:32:29Z,1130 N Main St,Fast Food Restaurants,Monmouth,US,us/il/monmouth/1130nmainst/-2061630068,40.922304,-90.648003,Burger King,61462,IL,Burger King
2015-10-23T01:07:53Z,2018-06-22T18:32:27Z,449 W Butler Ave,Fast Food Restaurants,Chalfont,US,us/pa/chalfont/449wbutlerave/-891525969,40.270346999999994,-75.223726,Subway,18914,PA,Subway
2016-06-20T17:18:15Z,2018-06-22T18:32:27Z,4040 38th Ave,Fast Food Restaurant and Burger Joint,Moline,US,us/il/moline/404038thave/-2061630068,41.472174,-90.477646,Burger King,61265,IL,Burger King
2016-06-11T00:34:07Z,2018-06-22T18:32:26Z,1935 N Mannheim Rd,Fast Food Restaurant,Melrose Park,US,us/il/melrosepark/1935nmannheimrd/-2061630068,41.908625,-87.883706,Burger King,60160,IL,Burger King
2016-04-05T03:38:52Z,2018-06-22T18:32:25Z,3013 Salem Ave,Fast Food Restaurant and Mexican Restaurant,Dayton,US,us/oh/dayton/3013salemave/-864103396,39.789566,-84.238902,Taco Bell,45406,OH,Taco Bell
2015-11-13T18:38:59Z,2018-06-22T18:32:25Z,2509 S Smithville Rd,Fast Food Restaurants,Dayton,US,us/oh/dayton/2509ssmithvillerd/-864103396,39.73069,-84.141681,Taco Bell,45420,OH,Taco Bell
2017-06-13T18:21:18Z,2018-06-22T18:32:25Z,47 Woodman Dr,Fast Food Restaurant,Dayton,US,us/oh/dayton/47woodmandr/-864103396,39.768446999999995,-84.123579,Taco Bell,45431,OH,Taco Bell
2016-08-18T18:27:50Z,2018-06-22T18:32:24Z,3060 Kettering Blvd,Fast Food Restaurant,Dayton,US,us/oh/dayton/3060ketteringblvd/-864103396,39.706096,-84.202668,Taco Bell,45439,OH,Taco Bell
2017-06-19T15:26:36Z,2018-06-22T18:32:23Z,1094 N Main St,Fast Food Restaurant,East Peoria,US,us/il/eastpeoria/1094nmainst/-2061630068,40.67705,-89.56172,Burger King,61611,IL,Burger King
2016-06-14T02:39:50Z,2018-06-22T18:32:22Z,8440 N High St,Fast Food Restaurants,Columbus,US,us/oh/columbus/8440nhighst/-864103396,40.135435,-83.01686099999999,Taco Bell,43235,OH,Taco Bell
2016-04-02T05:14:27Z,2018-06-22T18:32:21Z,3834 Morse Rd,Fast Food Restaurants,Columbus,US,us/oh/columbus/3834morserd/-864103396,40.058393,-82.917559,Taco Bell,43219,OH,Taco Bell
2016-06-14T02:45:50Z,2018-06-22T18:32:21Z,4770 Sawmill Rd,Fast Food Restaurant,Columbus,US,us/oh/columbus/4770sawmillrd/-864103396,40.066295000000004,-83.092686,Taco Bell,43235,OH,Taco Bell
2016-04-01T06:28:52Z,2018-06-22T18:32:21Z,630 Machesney Rd,Fast Food Restaurants,Machesney Park,US,us/il/machesneypark/630machesneyrd/-2061630068,42.313288,-89.054244,Burger King,61115,IL,Burger King
2016-04-02T05:24:31Z,2018-06-22T18:32:21Z,1701 E Jackson St,Fast Food Restaurant,Macomb,US,us/il/macomb/1701ejacksonst/-2061630068,40.458596,-90.648064,Burger King,61455,IL,Burger King
2017-06-29T02:12:32Z,2018-06-22T18:32:20Z,500 Terry Rich Blvd,Fast Food Restaurants,Saint Clair,US,us/pa/saintclair/500terryrichblvd/-891525969,40.727488,-76.19009799999999,Subway,17970,PA,Subway
2016-10-13T13:27:11Z,2018-06-22T18:32:20Z,366 Center Ave,Fast Food Restaurants,Schuylkill Haven,US,us/pa/schuylkillhaven/366centerave/-891525969,40.637935,-76.171635,Subway,17972,PA,Subway
2017-07-19T15:29:44Z,2018-06-22T18:32:19Z,6 W Main St,Fast Food Restaurants,Bloomsburg,US,us/pa/bloomsburg/6wmainst/-891525969,41.003082,-76.456548,Subway,17815,PA,Subway
2017-06-24T06:35:46Z,2018-06-22T18:32:17Z,149 N 3rd St,Fast Food Restaurants,Columbia,US,us/pa/columbia/149n3rdst/-891525969,40.033798,-76.504435,Subway,17512,PA,Subway
2016-05-05T12:42:20Z,2018-06-22T18:32:17Z,2350 N Reading Rd,Fast Food Restaurants,Denver,US,us/pa/denver/2350nreadingrd/-891525969,40.228059,-76.089173,Subway,17517,PA,Subway
2016-12-26T18:05:45Z,2018-06-22T18:32:14Z,439 S Schuyler Ave,Fast Food Restaurants,Kankakee,US,us/il/kankakee/439sschuylerave/-2061630068,41.115978000000005,-87.864762,Burger King,60901,IL,Burger King
2017-11-17T14:35:40Z,2018-06-22T18:32:12Z,3130 Plainfield Rd,Fast Food Restaurant,Joliet,US,us/il/joliet/3130plainfieldrd/-2061630068,41.581105,-88.16362600000001,Burger King,60435,IL,Burger King
2016-03-18T18:51:56Z,2018-06-22T18:32:09Z,5300 Grand Ave,Fast Food,Gurnee,US,us/il/gurnee/5300grandave/-2061630068,42.377669,-87.934268,Burger King,60031,IL,Burger King
2016-03-24T16:36:33Z,2018-06-22T18:32:07Z,1834 Waukegan Rd,Fast Food Restaurant,Glenview,US,us/il/glenview/1834waukeganrd/-2061630068,42.088318,-87.79858399999999,Burger King,60025,IL,Burger King
2016-04-04T06:17:06Z,2018-06-22T18:32:07Z,3406 Nameoki Rd,Fast Food Restaurants,Granite City,US,us/il/granitecity/3406nameokird/-2061630068,38.72506,-90.12272,Burger King,62040,IL,Burger King
2016-03-24T10:19:36Z,2018-06-22T18:32:03Z,5100 W Cermak Rd,Fast Food,Cicero,US,us/il/cicero/5100wcermakrd/-2061630068,41.851507,-87.751952,Burger King,60804,IL,Burger King
2015-10-23T02:45:20Z,2018-06-22T18:31:24Z,1281 Hyde Park Ave,Fast Food,Hyde Park,US,us/ma/hydepark/1281hydeparkave/-891525969,42.25521,-71.124229,Subway,2136,MA,Subway
2016-03-27T14:39:23Z,2018-06-22T18:31:22Z,1105 Massachusetts Ave,Fast Food Restaurants,Cambridge,US,us/ma/cambridge/1105massachusettsave/-891525969,42.370628,-71.11362700000001,Subway,2138,MA,Subway
2015-10-26T23:04:58Z,2018-06-22T18:31:21Z,107 Main St,Sandwich Place and Fast Food Restaurant,Maynard,US,us/ma/maynard/107mainst/-891525969,42.431816999999995,-71.455051,Subway,1754,MA,Subway
2014-02-02T04:22:55Z,2018-06-22T18:31:16Z,1900 W Slauson Ave,Fast Food Restaurant,Los Angeles,US,us/ca/losangeles/1900wslausonave/-1161002137,33.989111,-118.31236000000001,McDonald's,90047,CA,McDonalds
2015-10-23T03:31:26Z,2018-06-22T18:31:15Z,18850 Soledad Canyon Rd,Fast Food,Canyon Country,US,us/ca/canyoncountry/18850soledadcanyonrd/-1161002137,34.415365,-118.46448899999999,McDonald's,91351,CA,McDonalds
2015-11-07T12:13:03Z,2018-06-22T18:31:13Z,9550 Main St,"Sandwich Place, Building, and Fast Food Restaurant",Woodstock,US,us/ga/woodstock/9550mainst/-891525969,34.110167,-84.51781,Subway,30188,GA,Subway
2016-03-21T00:03:05Z,2018-06-22T18:31:13Z,1142 E Highway 193,Fast Food Restaurants,Layton,US,us/ut/layton/1142ehighway193/-891525969,41.101724,-111.945057,Subway,84040,UT,Subway
2016-03-26T04:18:38Z,2018-06-22T18:31:12Z,1852 Manhattan Beach Blvd,Fast Food,Manhattan Beach,US,us/ca/manhattanbeach/1852manhattanbeachblvd/-1161002137,33.887088,-118.37903200000001,McDonald's,90266,CA,McDonalds
2016-04-03T01:57:54Z,2018-06-22T18:31:10Z,1821 Motel Dr,Fast Food Restaurant,Merced,US,us/ca/merced/1821moteldr/-1161002137,37.288978,-120.454784,McDonald's,95341,CA,McDonalds
2015-10-23T03:58:09Z,2018-06-22T18:31:09Z,1800 S Western Ave,Fast Food Restaurant,Los Angeles,US,us/ca/losangeles/1800swesternave/-1161002137,34.041633000000004,-118.30853799999998,McDonald's,90006,CA,McDonalds
2016-06-20T17:35:54Z,2018-06-22T18:31:08Z,1800 Prescott Rd,Fast Food Restaurant,Modesto,US,us/ca/modesto/1800prescottrd/-1161002137,37.670921,-121.03126599999999,McDonald's,95350,CA,McDonalds
2015-10-23T03:32:11Z,2018-06-22T18:31:05Z,17455 Central Ave,Fast Food Restaurants,Carson,US,us/ca/carson/17455centralave/-1161002137,33.872499,-118.249899,McDonald's,90746,CA,McDonalds
2016-04-01T06:36:59Z,2018-06-22T18:31:04Z,1725 E El Monte Way,Fast Food Restaurant,Dinuba,US,us/ca/dinuba/1725eelmonteway/-1161002137,36.545446999999996,-119.376746,McDonald's,93618,CA,McDonalds
2015-05-22T18:04:45Z,2018-06-22T18:31:03Z,1721 E Bayshore Rd,Fast Food,Palo Alto,US,us/ca/paloalto/1721ebayshorerd/-1161002137,37.460186,-122.137635,McDonald's,94303,CA,McDonalds
2016-03-29T05:13:57Z,2018-06-22T18:31:03Z,1721 Howe Ave,Fast Food Restaurants,Sacramento,US,us/ca/sacramento/1721howeave/-1161002137,38.596734999999995,-121.415696,McDonald's,95825,CA,McDonalds
2015-10-21T17:54:45Z,2018-06-22T18:31:01Z,1700 W Capitol Ave,Fast Food Restaurant,West Sacramento,US,us/ca/westsacramento/1700wcapitolave/-1161002137,38.580839000000005,-121.53100500000001,McDonald's,95691,CA,McDonalds
2015-10-19T15:19:24Z,2018-06-22T18:30:59Z,170 Lincoln Rd E,Fast Food Restaurant South Vallejo,Vallejo,US,us/ca/vallejo/170lincolnrde/-1161002137,38.083895,-122.232565,McDonald's,94591,CA,McDonalds
2016-03-25T03:01:03Z,2018-06-22T18:30:56Z,1634 W Glenoaks Blvd,Fast Food Restaurant,Glendale,US,us/ca/glendale/1634wglenoaksblvd/-1161002137,34.170497,-118.28943400000001,McDonald's,91201,CA,McDonalds
2016-10-20T05:09:58Z,2018-06-22T18:30:51Z,15950 Los Serranos Country Club Dr,Fast Food Restaurant,Chino Hills,US,us/ca/chinohills/15950losserranoscountryclubdr/-1161002137,33.964895,-117.697501,McDonald's,91709,CA,McDonalds
2016-03-28T06:02:48Z,2018-06-22T18:30:49Z,1570 Sycamore Ave,Fast Food Restaurants,Hercules,US,us/ca/hercules/1570sycamoreave/-1161002137,38.00878,-122.27128799999998,McDonald's,94547,CA,McDonalds
2016-03-27T05:39:41Z,2018-06-22T18:30:45Z,1520 W Valley Blvd,Fast Food Restaurant,Alhambra,US,us/ca/alhambra/1520wvalleyblvd/-1161002137,34.077272,-118.13938,McDonald's,91803,CA,McDonalds
2015-10-23T02:42:44Z,2018-06-22T18:30:45Z,1526 W Edinger Ave,Fast Food Restaurants,Santa Ana,US,us/ca/santaana/1526wedingerave/-1161002137,33.726842,-117.88911599999999,McDonald's,92704,CA,McDonalds
2016-04-01T06:55:06Z,2018-06-22T18:30:44Z,1516 Canyon Del Rey Blvd,Fast Food Restaurant,Seaside,US,us/ca/seaside/1516canyondelreyblvd/-1161002137,36.607914,-121.85598200000001,McDonald's,93955,CA,McDonalds
2015-10-21T17:56:41Z,2018-06-22T18:30:42Z,1500 E Main St,Fast Food Restaurants,Woodland,US,us/ca/woodland/1500emainst/-1161002137,38.676763,-121.750518,McDonald's,95776,CA,McDonalds
2017-06-22T19:35:59Z,2018-06-22T18:30:38Z,1459 Main St,Fast Food Restaurant,Watsonville,US,us/ca/watsonville/1459mainst/-1161002137,36.916716,-121.775824,McDonald's,95076,CA,McDonalds
2016-04-08T08:37:05Z,2018-06-22T18:29:48Z,35 Erie Rd,Fast Food Restaurants,Tallmadge,US,us/oh/tallmadge/35erierd/-891525969,41.100839,-81.437661,Subway,44278,OH,Subway
2015-10-23T02:41:09Z,2018-06-22T18:29:43Z,3200 Broadway,Fast Food Restaurants,Grove City,US,us/oh/grovecity/3200broadway/-891525969,39.896677000000004,-83.081176,Subway,43123,OH,Subway
2016-06-20T17:19:33Z,2018-06-22T18:29:43Z,3212 Mahoning Ave,Fast Food Restaurants,Youngstown,US,us/oh/youngstown/3212mahoningave/-891525969,41.103117,-80.706303,Subway,44509,OH,Subway
2015-10-23T02:48:53Z,2018-06-22T18:29:39Z,1221 E 9 Mile Rd,Taco Place and Fast Food Restaurant,Hazel Park,US,us/mi/hazelpark/1221e9milerd/-864103396,42.461636999999996,-83.092384,Taco Bell,48030,MI,Taco Bell
2015-10-23T00:43:04Z,2018-06-22T18:29:39Z,12200 Gratiot Ave,Fast Food Restaurant,Detroit,US,us/mi/detroit/12200gratiotave/-864103396,42.414696,-82.991078,Taco Bell,48205,MI,Taco Bell
2016-04-04T06:44:34Z,2018-06-22T18:29:38Z,2924 State Rd,Fast Food Restaurants,Cuyahoga Falls,US,us/oh/cuyahogafalls/2924staterd/-891525969,41.151148,-81.508981,Subway,44223,OH,Subway
2017-06-27T05:04:17Z,2018-06-22T18:29:37Z,2838 Whipple Ave NW,Fast Food Restaurants,Canton,US,us/oh/canton/2838whippleavenw/-891525969,40.829692,-81.424453,Subway,44708,OH,Subway
2017-06-29T20:04:55Z,2018-06-22T18:29:30Z,8428 Baltimore Ave,Fast Food Restaurant,College Park,US,us/md/collegepark/8428baltimoreave/-864103396,38.993906,-76.932576,Taco Bell,20740,MD,Taco Bell
2017-07-19T15:29:38Z,2018-06-22T18:29:18Z,109 S Jefferson St,Fast Food Restaurants,La Grange,US,us/tx/lagrange/109sjeffersonst/-891525969,29.905504999999998,-96.876605,Subway,78945,TX,Subway
2017-08-14T19:51:53Z,2018-06-22T18:29:06Z,2132 N Park Rd,Fast food restaurants,Connersville,US,us/in/connersville/2132nparkrd/-2061630068,39.65965,-85.12869,Burger King,47331,IN,Burger King
2015-10-28T16:32:34Z,2018-06-22T18:29:05Z,1018 E Gravis St,Fast Food Restaurants,San Diego,US,us/tx/sandiego/1018egravisst/-891525969,27.761418,-98.22821,Subway,78384,TX,Subway
2017-07-18T03:15:49Z,2018-06-22T18:28:49Z,36100 Hwy 27,Fast Food,Haines City,US,us/fl/hainescity/36100hwy27/-2061630068,28.124645,-81.64031,Burger King,33844,FL,Burger King
2015-09-21T08:44:50Z,2018-06-22T18:28:34Z,860 S Main St,Fast Food Restaurants,Belle Glade,US,us/fl/belleglade/860smainst/-2061630068,26.6752,-80.67163000000001,Burger King,33430,FL,Burger King
2017-04-12T11:10:37Z,2018-06-22T18:28:22Z,1308 N Keller Dr,Fast Food,Effingham,US,us/il/effingham/1308nkellerdr/-2061630068,39.140033,-88.566849,Burger King,62401,IL,Burger King
2016-06-20T17:35:27Z,2018-06-22T18:27:46Z,7085 N Marks Ave,Fast Food Restaurants,Fresno,US,us/ca/fresno/7085nmarksave/-864103396,36.838733000000005,-119.847902,Taco Bell,93711,CA,Taco Bell
2016-03-27T05:39:32Z,2018-06-22T18:27:31Z,7785 N 1st St,Fast Food Restaurant,Fresno,US,us/ca/fresno/7785n1stst/-864103396,36.851564,-119.77503300000001,Taco Bell,93720,CA,Taco Bell
2016-06-20T15:27:55Z,2018-06-22T18:27:26Z,991 W El Camino Real,Fast Food,Sunnyvale,US,us/ca/sunnyvale/991welcaminoreal/-864103396,37.372189,-122.04766299999999,Taco Bell,94087,CA,Taco Bell
2017-06-22T19:35:57Z,2018-06-22T18:27:21Z,1350 Travis Blvd,Fast Food Restaurant,Fairfield,US,us/ca/fairfield/1350travisblvd/-864103396,38.260137,-122.053517,Taco Bell,94533,CA,Taco Bell
2016-03-29T05:02:23Z,2018-06-22T18:27:20Z,500 Contra Costa Blvd,Fast Food,Pleasant Hill,US,us/ca/pleasanthill/500contracostablvd/-864103396,37.981376000000004,-122.06754099999999,Taco Bell,94523,CA,Taco Bell
2016-03-29T05:02:37Z,2018-06-22T18:27:19Z,1700 Contra Costa Blvd,Fast Food Restaurant and Mexican Restaurant,Pleasant Hill,US,us/ca/pleasanthill/1700contracostablvd/-864103396,37.953026,-122.059777,Taco Bell,94523,CA,Taco Bell
2015-11-29T19:32:19Z,2018-06-22T18:27:14Z,3630 Cobb Pkwy Nw,Fast food restaurants,Acworth,US,us/ga/acworth/3630cobbpkwynw/-2061630068,34.04479,-84.69587,Burger King,30101,GA,Burger King
2017-02-11T21:32:05Z,2018-06-22T18:27:13Z,3010 Canton Rd,Fast Food Restaurants,Marietta,US,us/ga/marietta/3010cantonrd/-1161002137,34.02467,-84.52821800000001,McDonald's,30066,GA,McDonalds
2016-03-28T05:15:04Z,2018-06-22T18:27:08Z,500 Sierra St,Fast Food Restaurant,Kingsburg,US,us/ca/kingsburg/500sierrast/-864103396,36.51788,-119.56352700000001,Taco Bell,93631,CA,Taco Bell
2016-04-01T06:51:00Z,2018-06-22T18:27:07Z,867 Oak Park Blvd,Fast Food,Pismo Beach,US,us/ca/pismobeach/867oakparkblvd/-864103396,35.134484,-120.605221,Taco Bell,93449,CA,Taco Bell
2016-04-01T06:50:55Z,2018-06-22T18:27:05Z,1500 W Grand Ave,Fast Food Restaurants,Grover Beach,US,us/ca/groverbeach/1500wgrandave/-864103396,35.121085,-120.61281899999999,Taco Bell,93433,CA,Taco Bell
2016-04-05T04:00:21Z,2018-06-22T18:27:04Z,535 W Tefft St,Fast Food Restaurant and Mexican Restaurant,Nipomo,US,us/ca/nipomo/535wtefftst/-864103396,35.037452,-120.483624,Taco Bell,93444,CA,Taco Bell
2016-03-28T05:34:12Z,2018-06-22T18:26:58Z,3315 Union Ave,Fast Food Restaurant,Bakersfield,US,us/ca/bakersfield/3315unionave/-864103396,35.389522,-119.003386,Taco Bell,93305,CA,Taco Bell
2016-03-28T05:34:51Z,2018-06-22T18:26:57Z,2300 H St,Fast Food Restaurant,Bakersfield,US,us/ca/bakersfield/2300hst/-864103396,35.380387,-119.020827,Taco Bell,93301,CA,Taco Bell
2016-03-28T05:15:08Z,2018-06-22T18:26:56Z,1520 Hillman St,Fast Food Restaurant,Tulare,US,us/ca/tulare/1520hillmanst/-864103396,36.227047,-119.33084299999999,Taco Bell,93274,CA,Taco Bell
2016-03-28T05:15:08Z,2018-06-22T18:26:56Z,510 E Tulare Ave,Fast Food,Tulare,US,us/ca/tulare/510etulareave/-864103396,36.208664,-119.342028,Taco Bell,93274,CA,Taco Bell
2017-06-19T15:36:46Z,2018-06-22T18:26:55Z,826 W University Ave,Fast Food Restaurant,Gainesville,US,us/fl/gainesville/826wuniversityave/-864103396,29.652081,-82.333303,Taco Bell,32601,FL,Taco Bell
2017-07-07T13:14:53Z,2018-06-22T18:26:36Z,31 W Hanover St,Fast Food Restaurants,Spring Grove,US,us/pa/springgrove/31whanoverst/-891525969,39.882529,-76.864965,Subway,17362,PA,Subway
2017-07-02T01:56:07Z,2018-06-22T18:26:35Z,608 E Main St,Fast Food Restaurants,Waynesboro,US,us/pa/waynesboro/608emainst/-891525969,39.753163,-77.573373,Subway,17268,PA,Subway
2016-05-05T12:45:00Z,2018-06-22T18:26:31Z,491 E Sycamore Rd,Fast Food Restaurants,Snow Shoe,US,us/pa/snowshoe/491esycamorerd/-891525969,41.026843,-77.93580899999999,Subway,16874,PA,Subway
2017-07-19T22:26:53Z,2018-06-22T18:26:30Z,1169 S Main St,Fast Food Restaurants,Mansfield,US,us/pa/mansfield/1169smainst/-891525969,41.799828000000005,-77.07628100000001,Subway,16933,PA,Subway
2016-04-02T05:45:09Z,2018-06-22T18:26:30Z,3455 Capital City Mall Dr,Fast Food Restaurants,Camp Hill,US,us/pa/camphill/3455capitalcitymalldr/-891525969,40.222471999999996,-76.930148,Subway,17011,PA,Subway
2016-04-06T03:46:41Z,2018-06-22T18:26:29Z,322 Spring Plz,Fast Food Restaurant,Roaring Spring,US,us/pa/roaringspring/322springplz/-891525969,40.331501,-78.38617099999999,Subway,16673,PA,Subway
2015-09-21T07:37:52Z,2018-06-22T18:26:27Z,3104 W 26th St,Fast Food Restaurants,Erie,US,us/pa/erie/3104w26thst/-891525969,42.086667,-80.142521,Subway,16506,PA,Subway
2016-05-04T23:57:56Z,2018-06-22T18:26:27Z,8035 Perry Hwy,Fast Food Restaurants,Erie,US,us/pa/erie/8035perryhwy/-891525969,42.068814,-80.038942,Subway,16509,PA,Subway
2016-03-28T15:02:41Z,2018-06-22T18:26:27Z,1501 E 38th St,Fast Food Restaurants,Erie,US,us/pa/erie/1501e38thst/-891525969,42.114222,-80.034149,Subway,16510,PA,Subway
2015-10-19T15:05:42Z,2018-06-22T18:26:25Z,116 N Franklin St,Fast Food Restaurants,Titusville,US,us/pa/titusville/116nfranklinst/-891525969,41.627796999999994,-79.673326,Subway,16354,PA,Subway
2015-10-23T01:27:08Z,2018-06-22T18:26:24Z,7421 Crater Lake Hwy,Fast Food Restaurants,White City,US,us/or/whitecity/7421craterlakehwy/-1161002137,42.424354,-122.85108000000001,McDonald's,97503,OR,McDonalds
2017-07-20T14:02:28Z,2018-06-22T18:26:23Z,2100 8th Ct,Fast Food Restaurant,West Linn,US,us/or/westlinn/21008thct/-1161002137,45.346352,-122.651045,McDonald's,97068,OR,McDonalds
2017-07-20T14:02:28Z,2018-06-22T18:26:23Z,18550 Willamette Dr,Fast Food,West Linn,US,us/or/westlinn/18550willamettedr/-1161002137,45.391447,-122.646082,McDonald's,97068,OR,McDonalds
2015-11-15T18:25:16Z,2018-06-22T18:26:21Z,1002 NW Frontage Rd,Fast Food Restaurant,Troutdale,US,us/or/troutdale/1002nwfrontagerd/-1161002137,45.543827,-122.3976,McDonald's,97060,OR,McDonalds
2016-04-02T05:13:43Z,2018-06-22T18:26:17Z,4301 W Wisconsin Ave,Fast Food Restaurant Grand Chute,Appleton,US,us/wi/appleton/4301wwisconsinave/-864103396,44.272996,-88.470975,Taco Bell,54913,WI,Taco Bell
2016-06-07T22:02:53Z,2018-06-22T18:26:16Z,1170 Pulaski Hwy,Fast Food Restaurant and Burger Joint,Bear,US,us/de/bear/1170pulaskihwy/-2061630068,39.630185,-75.664759,Burger King,19701,DE,Burger King
2016-03-30T04:15:51Z,2018-06-22T18:26:16Z,5701 Main St,Fast Food,Springfield,US,us/or/springfield/5701mainst/-1161002137,44.045685,-122.92846499999999,McDonald's,97478,OR,McDonalds
2015-10-19T17:41:15Z,2018-06-22T18:26:12Z,1598 Hawthorne Ave NE,Fast Food Restaurant Northeast Salem,Salem,US,us/or/salem/1598hawthorneavene/-1161002137,44.949393,-122.99253799999998,McDonald's,97301,OR,McDonalds
2015-10-20T01:50:32Z,2018-06-22T18:26:12Z,570 Wallace Rd NW,Fast Food,Salem,US,us/or/salem/570wallacerdnw/-1161002137,44.947221,-123.049783,McDonald's,97304,OR,McDonalds
2015-10-23T03:16:14Z,2018-06-22T18:26:11Z,5090 Commercial St SE,Fast Food Restaurants,Salem,US,us/or/salem/5090commercialstse/-1161002137,44.881341,-123.029824,McDonald's,97306,OR,McDonalds
2017-07-24T21:41:10Z,2018-06-22T18:26:10Z,3540 Highway 90,Fast Food Restaurant,Milton,US,us/fl/milton/3540highway90/-1161002137,30.592351,-87.174869,McDonald's,32571,FL,McDonalds
2016-04-04T04:13:35Z,2018-06-22T18:26:09Z,203 W Oglethorpe Hwy,Fast Food Restaurant,Hinesville,US,us/ga/hinesville/203woglethorpehwy/-1161002137,31.843914,-81.593593,McDonald's,31313,GA,McDonalds
2016-04-04T04:12:41Z,2018-06-22T18:26:09Z,801 Elma G Miles Pkwy,Fast Food Restaurant,Hinesville,US,us/ga/hinesville/801elmagmilespkwy/-1161002137,31.828902000000003,-81.617553,McDonald's,31313,GA,McDonalds
2016-04-05T02:42:47Z,2018-06-22T18:26:09Z,8590 Navarre Pkwy,Fast Food Restaurant,Navarre,US,us/fl/navarre/8590navarrepkwy/-2061630068,30.401603,-86.866497,Burger King,32566,FL,Burger King
2016-04-01T06:41:09Z,2018-06-22T18:26:08Z,965 Dawsonville Hwy,Fast Food,Gainesville,US,us/ga/gainesville/965dawsonvillehwy/-1161002137,34.296844,-83.83715500000001,McDonald's,30501,GA,McDonalds
2016-07-06T20:22:12Z,2018-06-22T18:26:08Z,2125 NW Stewart Pkwy,Fast Food Restaurant,Roseburg,US,us/or/roseburg/2125nwstewartpkwy/-1161002137,43.23357,-123.372345,McDonald's,97470,OR,McDonalds
2017-09-19T09:31:06Z,2018-06-22T18:26:07Z,19 W Franklin Pl,Fast Food Restaurants,Hartwell,US,us/ga/hartwell/19wfranklinpl/-1161002137,34.357912,-82.94130799999999,McDonald's,30643,GA,McDonalds
2017-06-29T02:24:28Z,2018-06-22T18:26:07Z,204 Broad St,Fast Food,Hawkinsville,US,us/ga/hawkinsville/204broadst/-1161002137,32.282152,-83.465677,McDonald's,31036,GA,McDonalds
2015-11-24T19:48:18Z,2018-06-22T18:26:06Z,895 SW Rimrock Way,Fast Food Restaurants,Redmond,US,us/or/redmond/895swrimrockway/-1161002137,44.267184,-121.19426499999999,McDonald's,97756,OR,McDonalds
2015-10-20T04:56:54Z,2018-06-22T18:26:05Z,9100 SE Powell Blvd,Fast Food Restaurant,Portland,US,us/or/portland/9100sepowellblvd/-1161002137,45.496867,-122.570625,McDonald's,97266,OR,McDonalds
2016-03-24T09:46:04Z,2018-06-22T18:26:04Z,1520 NE Grand Ave,Fast Food Restaurants,Portland,US,us/or/portland/1520negrandave/-1161002137,45.534074,-122.660326,McDonald's,97232,OR,McDonalds
2015-11-02T17:33:17Z,2018-06-22T18:26:04Z,18320 SE Stark St,Fast Food Restaurant Rockwood,Portland,US,us/or/portland/18320sestarkst/-1161002137,45.518568,-122.474804,McDonald's,97233,OR,McDonalds
2016-06-04T21:00:22Z,2018-06-22T18:26:03Z,2501 Thompson Bridge Rd,Fast Food,Gainesville,US,us/ga/gainesville/2501thompsonbridgerd/-1161002137,34.33859,-83.84719399999999,McDonald's,30501,GA,McDonalds
2017-06-19T15:32:20Z,2018-06-22T18:26:02Z,3330 NE 82nd Ave,Fast Food Restaurants,Portland,US,us/or/portland/3330ne82ndave/-1161002137,45.547096999999994,-122.578418,McDonald's,97220,OR,McDonalds
2016-03-21T01:38:19Z,2018-06-22T18:26:01Z,7370 Spout Springs Rd,Fast Food Restaurant,Flowery Branch,US,us/ga/flowerybranch/7370spoutspringsrd/-1161002137,34.113731,-83.875289,McDonald's,30542,GA,McDonalds
2015-10-23T03:46:18Z,2018-06-22T18:26:00Z,12005 N Center Ave,Fast Food Restaurant Hayden Island,Portland,US,us/or/portland/12005ncenterave/-1161002137,45.610301,-122.680866,McDonald's,97217,OR,McDonalds
2016-10-26T21:51:32Z,2018-06-22T18:25:59Z,143 Ocilla Hwy,Fast Food Restaurants,Fitzgerald,US,us/ga/fitzgerald/143ocillahwy/-1161002137,31.700146999999998,-83.250732,McDonald's,31750,GA,McDonalds
2016-04-05T03:18:49Z,2018-06-22T18:25:58Z,300 Elbert St,Fast Food Restaurants,Elberton,US,us/ga/elberton/300elbertst/-1161002137,34.109957,-82.864359,McDonald's,30635,GA,McDonalds
2016-03-24T09:55:47Z,2018-06-22T18:25:58Z,8011 NE M L King Blvd,Fast Food Restaurant,Portland,US,us/or/portland/8011nemlkingblvd/-1161002137,45.581668,-122.66145900000001,McDonald's,97211,OR,McDonalds
2015-10-25T18:05:24Z,2018-06-22T18:25:58Z,10970 SE Oak St,Fast Food,Portland,US,us/or/portland/10970seoakst/-1161002137,45.443493,-122.62877900000001,McDonald's,97222,OR,McDonalds
2015-11-22T18:54:04Z,2018-06-22T18:25:57Z,1035 SW 6th Ave,Fast Food Restaurants,Portland,US,us/or/portland/1035sw6thave/-1161002137,45.516651,-122.679915,McDonald's,97204,OR,McDonalds
2015-10-23T03:53:58Z,2018-06-22T18:25:57Z,1831 W Burnside St,Fast Food Restaurants,Portland,US,us/or/portland/1831wburnsidest/-1161002137,45.523,-122.689866,McDonald's,97209,OR,McDonalds
2015-11-30T18:23:52Z,2018-06-22T18:25:56Z,5220 Buford Hwy NE,Fast Food Restaurants,Atlanta,US,us/ga/atlanta/5220bufordhwyne/-1161002137,33.895571999999994,-84.283386,McDonald's,30340,GA,McDonalds
2016-03-24T09:47:59Z,2018-06-22T18:25:56Z,7487 N Ida Ave,Fast Food Restaurant,Portland,US,us/or/portland/7487nidaave/-1161002137,45.586771,-122.73853500000001,McDonald's,97203,OR,McDonalds
2016-03-24T09:53:57Z,2018-06-22T18:25:55Z,1850 SW 6th Ave,Fast Food Restaurant,Portland,US,us/or/portland/1850sw6thave/-1161002137,45.511068,-122.68294099999999,McDonald's,97201,OR,McDonalds
2015-10-20T05:10:52Z,2018-06-22T18:25:55Z,2875 SE Powell Blvd,Fast Food Restaurant,Portland,US,us/or/portland/2875sepowellblvd/-1161002137,45.497752,-122.63583700000001,McDonald's,97202,OR,McDonalds
2016-06-18T15:39:21Z,2018-06-22T18:25:54Z,9502 Highway 5,Fast Food Restaurant,Douglasville,US,us/ga/douglasville/9502highway5/-1161002137,33.724674,-84.76245899999999,McDonald's,30135,GA,McDonalds
2016-04-01T06:35:20Z,2018-06-22T18:25:54Z,943 Maddox Dr,Fast Food Restaurant,Ellijay,US,us/ga/ellijay/943maddoxdr/-1161002137,34.677928,-84.47945,McDonald's,30540,GA,McDonalds
2015-11-07T12:12:37Z,2018-06-22T18:25:54Z,2010 Clackamette Dr,Fast Food Restaurant,Oregon City,US,us/or/oregoncity/2010clackamettedr/-1161002137,45.368912,-122.601786,McDonald's,97045,OR,McDonalds
2015-10-23T22:25:41Z,2018-06-22T18:25:54Z,900 Southgate,Fast Food,Pendleton,US,us/or/pendleton/900southgate/-1161002137,45.656863,-118.810088,McDonald's,97801,OR,McDonalds
2016-03-24T09:47:26Z,2018-06-22T18:25:53Z,830 Commerce Dr,Fast food restaurants,Decatur,US,us/ga/decatur/830commercedr/-1161002137,33.77819,-84.29584200000001,McDonald's,30030,GA,McDonalds
2017-01-04T11:55:51Z,2018-06-22T18:25:53Z,2726 Chapel Hill Rd,Fast Food Restaurant,Douglasville,US,us/ga/douglasville/2726chapelhillrd/-1161002137,33.731508000000005,-84.73673000000001,McDonald's,30135,GA,McDonalds
2015-11-05T18:49:42Z,2018-06-22T18:25:53Z,1450 Molalla Ave,Fast Food Restaurants,Oregon City,US,us/or/oregoncity/1450molallaave/-1161002137,45.334883000000005,-122.58976499999999,McDonald's,97045,OR,McDonalds
2017-07-20T16:09:02Z,2018-06-22T18:25:53Z,1690 E Idaho Ave,Fast Food Restaurants,Ontario,US,us/or/ontario/1690eidahoave/-1161002137,44.024706,-116.940583,McDonald's,97914,OR,McDonalds
2016-11-18T15:47:26Z,2018-06-22T18:25:52Z,47567 Highway 58,Fast Food Restaurants,Oakridge,US,us/or/oakridge/47567highway58/-1161002137,43.747162,-122.48635800000001,McDonald's,97463,OR,McDonalds
2016-03-29T05:22:24Z,2018-06-22T18:25:51Z,1300 N Coast Hwy,Fast Food Restaurant,Newport,US,us/or/newport/1300ncoasthwy/-1161002137,44.647361,-124.053022,McDonald's,97365,OR,McDonalds
2016-05-28T13:46:42Z,2018-06-22T18:25:50Z,142 Carbondale Rd SW,Fast Food Restaurant and Burger Joint,Dalton,US,us/ga/dalton/142carbondalerdsw/-1161002137,34.654579999999996,-84.980898,McDonald's,30721,GA,McDonalds
2015-10-19T17:16:34Z,2018-06-22T18:25:49Z,3036 Villa Rica Hwy,Fast Food Restaurant and Burger Joint,Dallas,US,us/ga/dallas/3036villaricahwy/-1161002137,33.868809000000006,-84.841628,McDonald's,30157,GA,McDonalds
2016-04-01T06:57:15Z,2018-06-22T18:25:48Z,3611 Crater Lake Hwy,Fast Food,Medford,US,us/or/medford/3611craterlakehwy/-1161002137,42.371763,-122.85593200000001,McDonald's,97504,OR,McDonalds
2016-03-28T05:26:26Z,2018-06-22T18:25:47Z,660 Atlanta Rd,Fast Food Restaurant,Cumming,US,us/ga/cumming/660atlantard/-1161002137,34.186966,-84.14245600000001,McDonald's,30040,GA,McDonalds
2016-04-02T03:38:48Z,2018-06-22T18:25:47Z,1140 Biddle Rd,Fast Food Restaurants,Medford,US,us/or/medford/1140biddlerd/-1161002137,42.339557,-122.872146,McDonald's,97504,OR,McDonalds
2015-09-13T06:52:07Z,2018-06-22T18:25:46Z,100 16th St SE,Fast Food Restaurant,Long Beach,US,us/wa/longbeach/10016thstse/-1161002137,46.341977,-124.05442,McDonald's,98631,WA,McDonalds
2015-10-23T03:29:00Z,2018-06-22T18:25:44Z,2080 Crowell Rd N,Fast Food Restaurant,Covington,US,us/ga/covington/2080crowellrdn/-1161002137,33.614464,-83.920178,McDonald's,30014,GA,McDonalds
2015-10-23T00:55:14Z,2018-06-22T18:25:43Z,104 W Nashville Dr,Sandwich Place and Fast Food Restaurant,Nashville,US,us/nc/nashville/104wnashvilledr/-891525969,35.9784,-77.974215,Subway,27856,NC,Subway
2017-11-17T09:38:56Z,2018-06-22T18:25:43Z,2443 W Nc 10 Hwy,Fast Food Restaurants,Newton,US,us/nc/newton/2443wnc10hwy/-891525969,35.646477000000004,-81.26355,Subway,28658,NC,Subway
2015-10-20T01:02:27Z,2018-06-22T18:25:43Z,2320 Salem Rd SE,Fast Food Restaurants,Conyers,US,us/ga/conyers/2320salemrdse/-1161002137,33.627899,-83.977799,McDonald's,30013,GA,McDonalds
2017-07-20T14:50:04Z,2018-06-22T18:25:42Z,1408 Edgewood Dr,Fast Food Restaurants,Mount Airy,US,us/nc/mountairy/1408edgewooddr/-891525969,36.473546,-80.611793,Subway,27030,NC,Subway
2016-04-02T05:42:59Z,2018-06-22T18:25:41Z,336 Williamson Rd,Fast Food Restaurant,Mooresville,US,us/nc/mooresville/336williamsonrd/-891525969,35.582983,-80.874128,Subway,28117,NC,Subway
2017-12-11T05:07:10Z,2018-06-22T18:25:41Z,1255 Burkemont Ave,Fast Food Restaurants,Morganton,US,us/nc/morganton/1255burkemontave/-891525969,35.725336,-81.692565,Subway,28655,NC,Subway
2017-06-20T15:00:52Z,2018-06-22T18:25:40Z,1619 Bradley Park Dr,Fast Food Restaurants,Columbus,US,us/ga/columbus/1619bradleyparkdr/-1161002137,32.5324,-84.96753299999999,McDonald's,31904,GA,McDonalds
2016-04-05T02:58:01Z,2018-06-22T18:25:35Z,4153 W Vernon Ave,Fast Food Restaurant,Kinston,US,us/nc/kinston/4153wvernonave/-891525969,35.262313,-77.64478299999999,Subway,28504,NC,Subway
2015-11-09T18:21:07Z,2018-06-22T18:25:35Z,1130 West Ave,Fast Food Restaurant,Cartersville,US,us/ga/cartersville/1130westave/-1161002137,34.15733,-84.816204,McDonald's,30120,GA,McDonalds
2016-06-20T15:28:35Z,2018-06-22T18:25:34Z,1175 Bankhead Hwy,Fast Food Restaurant,Carrollton,US,us/ga/carrollton/1175bankheadhwy/-1161002137,33.596396,-85.036596,McDonald's,30116,GA,McDonalds
2018-01-18T06:30:45Z,2018-06-22T18:25:18Z,1350 E Woodrow Wilson Ave,Fast Food Restaurants,Jackson,US,us/ms/jackson/1350ewoodrowwilsonave/-1161002137,32.326801,-90.17230699999999,McDonald's,39216,MS,McDonalds
2016-10-26T21:19:47Z,2018-06-22T18:25:09Z,1033 Kingold Blvd,Fast Food Restaurants,Snow Hill,US,us/nc/snowhill/1033kingoldblvd/-1161002137,35.442178999999996,-77.668133,McDonald's,28580,NC,McDonalds
2014-02-03T04:05:16Z,2018-06-22T18:25:08Z,1442 S Bristol St,Fast Food,Santa Ana,US,us/ca/santaana/1442sbristolst/-891525969,33.727985,-117.88515100000001,Subway,92704,CA,Subway
2017-07-18T03:07:41Z,2018-06-22T18:25:06Z,3827 S Bristol St,Fast Food,Santa Ana,US,us/ca/santaana/3827sbristolst/-891525969,33.6964,-117.88540800000001,Subway,92704,CA,Subway
2016-03-30T04:24:24Z,2018-06-22T18:25:06Z,2403 N Tustin Ave,Fast Food,Santa Ana,US,us/ca/santaana/2403ntustinave/-891525969,33.769219,-117.83574399999999,Subway,92705,CA,Subway
2016-10-20T22:32:11Z,2018-06-22T18:25:04Z,10100 Leesville Rd,Fast Food Restaurant,Raleigh,US,us/nc/raleigh/10100leesvillerd/-1161002137,35.909279999999995,-78.727544,McDonald's,27613,NC,McDonalds
2016-10-26T21:21:25Z,2018-06-22T18:25:02Z,103 Centennial Dr,Fast Food Restaurants,Livingston,US,us/mt/livingston/103centennialdr/-1161002137,45.64066,-110.57145200000001,McDonald's,59047,MT,McDonalds
2016-04-02T03:39:32Z,2018-06-22T18:25:02Z,133 N Interchange,Fast Food,Deer Lodge,US,us/mt/deerlodge/133ninterchange/-1161002137,46.411823,-112.724593,McDonald's,59722,MT,McDonalds
2017-07-19T17:54:57Z,2018-06-22T18:25:01Z,1321 N Road St,Fast Food Restaurants,Elizabeth City,US,us/nc/elizabethcity/1321nroadst/-1161002137,36.329474,-76.226337,McDonald's,27909,NC,McDonalds
2016-04-02T05:43:01Z,2018-06-22T18:24:55Z,107 Gateway Blvd,Fast Food,Mooresville,US,us/nc/mooresville/107gatewayblvd/-1161002137,35.557833,-80.856348,McDonald's,28117,NC,McDonalds
2016-04-01T06:57:52Z,2018-06-22T18:24:53Z,1209 N Brightleaf Blvd,Fast Food Restaurant,Smithfield,US,us/nc/smithfield/1209nbrightleafblvd/-1161002137,35.519613,-78.314004,McDonald's,27577,NC,McDonalds
2016-04-01T06:26:48Z,2018-06-22T18:24:52Z,1201 W Sugar Creek Rd,Fast Food Restaurant,Charlotte,US,us/nc/charlotte/1201wsugarcreekrd/-1161002137,35.276965999999994,-80.794009,McDonald's,28213,NC,McDonalds
2017-09-04T07:32:44Z,2018-06-22T18:24:51Z,110 Morganton Blvd SW,Fast Food Restaurant,Lenoir,US,us/nc/lenoir/110morgantonblvdsw/-1161002137,35.91401,-81.527586,McDonald's,28645,NC,McDonalds
2018-01-21T18:38:46Z,2018-06-22T18:24:51Z,11401 Highway 49,Fast Food Restaurant,Gulfport,US,us/ms/gulfport/11401highway49/-1161002137,30.450438000000002,-89.103813,McDonald's,39503,MS,McDonalds
2016-03-31T02:13:25Z,2018-06-22T18:24:46Z,1035 N Wendover Rd,Fast Food Restaurant,Charlotte,US,us/nc/charlotte/1035nwendoverrd/-1161002137,35.19287,-80.795726,McDonald's,28211,NC,McDonalds
2018-01-23T05:45:40Z,2018-06-22T18:24:44Z,1010 N State St,Fast Food Restaurant,Jackson,US,us/ms/jackson/1010nstatest/-1161002137,32.31227,-90.177959,McDonald's,39202,MS,McDonalds
2017-06-30T02:14:24Z,2018-06-22T18:24:41Z,1000 High Point St,Fast Food Restaurants,Randleman,US,us/nc/randleman/1000highpointst/-1161002137,35.822904,-79.822825,McDonald's,27317,NC,McDonalds
2016-12-13T04:53:48Z,2018-06-22T18:24:33Z,1500 Western Blvd,Fast Food Restaurants,Tarboro,US,us/nc/tarboro/1500westernblvd/-1161002137,35.905248,-77.562595,McDonald's,27886,NC,McDonalds
2016-05-06T06:48:15Z,2018-06-22T18:24:06Z,1315 Monmouth St,Fast Food Restaurant,Independence,US,us/or/independence/1315monmouthst/-1161002137,44.851161,-123.204255,McDonald's,97351,OR,McDonalds
2016-04-01T06:56:17Z,2018-06-22T18:24:05Z,2101 Cascade Ave,Fast Food Restaurants,Hood River,US,us/or/hoodriver/2101cascadeave/-1161002137,45.709696,-121.532872,McDonald's,97031,OR,McDonalds
2016-04-01T06:56:20Z,2018-06-22T18:24:05Z,1049 E Marina Way,Fast Food Restaurant,Hood River,US,us/or/hoodriver/1049emarinaway/-1161002137,45.711475,-121.499772,McDonald's,97031,OR,McDonalds
2015-11-02T17:32:52Z,2018-06-22T18:24:03Z,900 SW Highland Dr,Fast Food Restaurant Gresham-Centennial,Gresham,US,us/or/gresham/900swhighlanddr/-1161002137,45.489761,-122.475544,McDonald's,97080,OR,McDonalds
2015-10-23T03:30:43Z,2018-06-22T18:24:03Z,4706 Portland Rd NE,Fast Food Restaurants,Salem,US,us/or/salem/4706portlandrdne/-1161002137,44.990019000000004,-122.987467,McDonald's,97305,OR,McDonalds
2015-10-23T03:20:59Z,2018-06-22T18:24:01Z,820 E Berkeley St,Fast Food,Gladstone,US,us/or/gladstone/820eberkeleyst/-1161002137,45.383196999999996,-122.58201000000001,McDonald's,97027,OR,McDonalds
2016-03-21T00:02:38Z,2018-06-22T18:24:01Z,204 NE Beacon Dr,Fast Food,Grants Pass,US,us/or/grantspass/204nebeacondr/-1161002137,42.437441,-123.30773300000001,McDonald's,97526,OR,McDonalds
2016-03-21T00:09:45Z,2018-06-22T18:23:59Z,2060 Highway 101,Fast Food Restaurant,Florence,US,us/or/florence/2060highway101/-1161002137,43.974385999999996,-124.097926,McDonald's,97439,OR,McDonalds
2016-04-01T06:57:38Z,2018-06-22T18:23:57Z,3555 W 11th Ave,Fast Food Restaurants,Eugene,US,us/or/eugene/3555w11thave/-1161002137,44.048015,-123.14583400000001,McDonald's,97402,OR,McDonalds
2016-04-01T06:57:37Z,2018-06-22T18:23:57Z,55 River Ave,Fast Food Restaurant,Eugene,US,us/or/eugene/55riverave/-1161002137,44.095702,-123.12668700000002,McDonald's,97404,OR,McDonalds
2016-04-02T05:03:39Z,2018-06-22T18:23:54Z,300 NW 3rd St,Fast food restaurants,Corvallis,US,us/or/corvallis/300nw3rdst/-1161002137,44.566313,-123.259904,McDonald's,97330,OR,McDonalds
2017-08-05T15:09:58Z,2018-06-22T18:23:54Z,772 S Broadway,Fast Food,Coos Bay,US,us/or/coosbay/772sbroadway/-1161002137,43.361532000000004,-124.213226,McDonald's,97420,OR,McDonalds
2016-04-02T04:15:26Z,2018-06-22T18:23:51Z,220 SW Century Dr,Fast Food,Bend,US,us/or/bend/220swcenturydr/-1161002137,44.048984000000004,-121.331653,McDonald's,97702,OR,McDonalds
2016-04-02T04:20:07Z,2018-06-22T18:23:50Z,20120 Pinebrook Blvd,Fast Food Restaurant,Bend,US,us/or/bend/20120pinebrookblvd/-1161002137,44.020936,-121.32456599999999,McDonald's,97702,OR,McDonalds
2015-10-23T02:26:38Z,2018-06-22T18:23:47Z,645 Marine Dr,Fast Food,Astoria,US,us/or/astoria/645marinedr/-1161002137,46.190432,-123.836124,McDonald's,97103,OR,McDonalds
2016-04-01T06:58:03Z,2018-06-22T18:23:46Z,3232 Pacific Blvd SE,Fast food restaurants,Albany,US,us/or/albany/3232pacificblvdse/-1161002137,44.642616,-123.06475900000001,McDonald's,97321,OR,McDonalds
2017-07-19T17:41:42Z,2018-06-22T18:23:44Z,526 E 2nd St,Fast Food,Winner,US,us/sd/winner/526e2ndst/-1161002137,43.376558,-99.85068299999999,McDonald's,57580,SD,McDonalds
2017-07-19T17:41:24Z,2018-06-22T18:23:43Z,702 N Dakota St,Fast Food Restaurants,Vermillion,US,us/sd/vermillion/702ndakotast/-1161002137,42.788466,-96.929214,McDonald's,57069,SD,McDonalds
2016-10-18T03:24:57Z,2018-06-22T18:23:43Z,3209 S Louise Ave,Fast Food Restaurant,Sioux Falls,US,us/sd/siouxfalls/3209slouiseave/-1161002137,43.516712,-96.771109,McDonald's,57106,SD,McDonalds
2017-09-01T22:19:13Z,2018-06-22T18:23:43Z,820 35th Cir SE,Fast Food Restaurants,Watertown,US,us/sd/watertown/82035thcirse/-1161002137,44.89069,-97.060755,McDonald's,57201,SD,McDonalds
2016-04-04T04:19:01Z,2018-06-22T18:23:42Z,131 Ryan Rd,Fast Food Restaurant,Spearfish,US,us/sd/spearfish/131ryanrd/-1161002137,44.501289,-103.860878,McDonald's,57783,SD,McDonalds
2016-12-13T03:53:44Z,2018-06-22T18:23:39Z,3101 E 26th St,Fast Food Restaurant,Sioux Falls,US,us/sd/siouxfalls/3101e26thst/-1161002137,43.529298,-96.688086,McDonald's,57103,SD,McDonalds
2016-12-13T03:53:45Z,2018-06-22T18:23:38Z,4000 W 41st St,Fast Food Restaurant,Sioux Falls,US,us/sd/siouxfalls/4000w41stst/-1161002137,43.514831,-96.77452,McDonald's,57106,SD,McDonalds
2017-07-06T18:07:17Z,2018-06-22T18:23:38Z,2223 W Main St,Fast Food,Rapid City,US,us/sd/rapidcity/2223wmainst/-1161002137,44.081793,-103.256176,McDonald's,57702,SD,McDonalds
2017-07-20T15:18:02Z,2018-06-22T18:23:37Z,1200 N Lacrosse St,Fast Food Restaurant,Rapid City,US,us/sd/rapidcity/1200nlacrossest/-1161002137,44.097617,-103.201638,McDonald's,57701,SD,McDonalds
2015-10-20T00:18:25Z,2018-06-22T18:23:37Z,3919 Cheyenne Blvd,Fast Food,Rapid City,US,us/sd/rapidcity/3919cheyenneblvd/-1161002137,44.09567,-103.150262,McDonald's,57703,SD,McDonalds
2017-07-19T17:41:16Z,2018-06-22T18:23:36Z,610 W Sioux Ave,Fast Food,Pierre,US,us/sd/pierre/610wsiouxave/-1161002137,44.370576,-100.360388,McDonald's,57501,SD,McDonalds
2017-09-01T08:20:34Z,2018-06-22T18:23:35Z,200 S Main St,Fast Food Restaurant,Chamberlain,US,us/sd/chamberlain/200smainst/-1161002137,43.809754,-99.331061,McDonald's,57325,SD,McDonalds
2016-06-20T17:24:37Z,2018-06-22T18:23:34Z,4817 Highway 29 S,Fast Food Restaurant and Mexican Restaurant,Alexandria,US,us/mn/alexandria/4817highway29s/-864103396,45.942085,-95.312621,Taco Bell,56308,MN,Taco Bell
2016-10-18T03:39:09Z,2018-06-22T18:23:34Z,1605 6th St,Fast Food Restaurants,Brookings,US,us/sd/brookings/16056thst/-1161002137,44.311492,-96.778289,McDonald's,57006,SD,McDonalds
2017-06-27T05:55:40Z,2018-06-22T18:23:31Z,7295 University Ave NE,Fast Food,Minneapolis,US,us/mn/minneapolis/7295universityavene/-864103396,45.100401,-93.261821,Taco Bell,55432,MN,Taco Bell
2016-10-20T07:04:41Z,2018-06-22T18:23:17Z,975 W 78th St,Fast Food Restaurant and Mexican Restaurant,Chanhassen,US,us/mn/chanhassen/975w78thst/-864103396,44.862427000000004,-93.545212,Taco Bell,55317,MN,Taco Bell
2016-03-10T18:52:05Z,2018-06-22T18:23:17Z,9230 Lyndale Ave S,Fast Food Restaurants,Minneapolis,US,us/mn/minneapolis/9230lyndaleaves/-864103396,44.836406,-93.289271,Taco Bell,55420,MN,Taco Bell
2017-07-24T20:51:26Z,2018-06-22T18:23:14Z,4141 Mormon Coulee Ct,Fast Food Restaurant,La Crosse,US,us/wi/lacrosse/4141mormoncouleect/-864103396,43.773454,-91.217936,Taco Bell,54601,WI,Taco Bell
2016-04-02T03:50:08Z,2018-06-22T18:23:12Z,291 County Road 10 Ne,Fast Food Restaurant,Minneapolis,US,us/mn/minneapolis/291countyroad10ne/-864103396,45.129052,-93.257356,Taco Bell,55434,MN,Taco Bell
2016-03-22T19:16:01Z,2018-06-22T18:23:10Z,1940 Suburban Ave,Fast Food Restaurant,Saint Paul,US,us/mn/saintpaul/1940suburbanave/-864103396,44.949379,-93.018372,Taco Bell,55119,MN,Taco Bell
2015-10-30T20:25:51Z,2018-06-22T18:23:10Z,215 E Lake St,Fast Food Restaurant,Minneapolis,US,us/mn/minneapolis/215elakest/-864103396,44.947993,-93.273227,Taco Bell,55408,MN,Taco Bell
2016-06-04T20:26:52Z,2018-06-22T18:23:09Z,1901 Highway 13 W,Fast Food Restaurant and Mexican Restaurant Highland,Burnsville,US,us/mn/burnsville/1901highway13w/-864103396,44.772818,-93.305195,Taco Bell,55337,MN,Taco Bell
2017-06-19T15:43:34Z,2018-06-22T18:23:08Z,1101 Larpenteur Ave W,Fast Food Restaurant,Saint Paul,US,us/mn/saintpaul/1101larpenteuravew/-864103396,44.992290000000004,-93.146918,Taco Bell,55113,MN,Taco Bell
2015-11-20T18:47:16Z,2018-06-22T18:23:05Z,14040 Highway 13 S,Fast Food Restaurant,Savage,US,us/mn/savage/14040highway13s/-864103396,44.748779,-93.380588,Taco Bell,55378,MN,Taco Bell
2015-10-24T00:19:50Z,2018-06-22T18:21:28Z,1282 S Boston Rd,Fast food restaurants,Danville,US,us/va/danville/1282sbostonrd/-2061630068,36.582443,-79.351877,Burger King,24540,VA,Burger King
2015-10-23T03:03:38Z,2018-06-22T18:20:37Z,290 E Compton Blvd,Fast food restaurants,Compton,US,us/ca/compton/290ecomptonblvd/-2061630068,33.895706,-118.22063,Burger King,90220,CA,Burger King
2016-06-08T16:18:39Z,2018-06-22T18:20:24Z,619 Broadway,Fast Food,Chula Vista,US,us/ca/chulavista/619broadway/-1161002137,32.626971999999995,-117.08742,McDonald's,91910,CA,McDonalds
2015-11-09T08:40:23Z,2018-06-22T18:20:20Z,6706 Clinton Hwy,Fast Food Restaurant,Knoxville,US,us/tn/knoxville/6706clintonhwy/-2061630068,36.006910999999995,-84.01808100000001,Burger King,37912,TN,Burger King
2016-04-02T04:03:37Z,2018-06-22T18:20:16Z,8030 Greenback Ln,Fast Food Restaurant,Citrus Heights,US,us/ca/citrusheights/8030greenbackln/-2061630068,38.677958000000004,-121.2652,Burger King,95610,CA,Burger King
2016-11-02T17:17:05Z,2018-06-22T18:20:12Z,236 N Humboldt Ave,Fast Food Restaurants,Willows,US,us/ca/willows/236nhumboldtave/-1161002137,39.52263,-122.21168,McDonald's,95988,CA,McDonalds
2016-03-31T02:44:37Z,2018-06-22T18:19:59Z,2757 Castro Valley Blvd,Fast food restaurants,Castro Valley,US,us/ca/castrovalley/2757castrovalleyblvd/-2061630068,37.694563,-122.08545500000001,Burger King,94546,CA,Burger King
2016-03-31T02:37:38Z,2018-06-22T18:19:55Z,49 W Hamilton Ave,Fast food restaurants,Campbell,US,us/ca/campbell/49whamiltonave/-2061630068,37.294339,-121.95087099999999,Burger King,95008,CA,Burger King
2016-06-20T15:35:11Z,2018-06-22T18:19:40Z,7201 Fair Oaks Blvd,Fast Food Restaurant and Burger Joint,Carmichael,US,us/ca/carmichael/7201fairoaksblvd/-2061630068,38.632,-121.3288,Burger King,95608,CA,Burger King
2016-04-04T07:25:02Z,2018-06-22T18:19:23Z,815 Chappel Dr,fast food restaurant,Spanish Fork,US,us/ut/spanishfork/815chappeldr/-2061630068,40.123976,-111.642624,Burger King,84660,UT,Burger King
2015-10-23T01:53:59Z,2018-06-22T18:19:16Z,1720 Park Ave,Fast Food Restaurant,Park City,US,us/ut/parkcity/1720parkave/-2061630068,40.658326,-111.507084,Burger King,84060,UT,Burger King
2015-10-23T02:59:10Z,2018-06-22T18:19:14Z,8304 El Camino Real,Fast food restaurants,Atascadero,US,us/ca/atascadero/8304elcaminoreal/-2061630068,35.474274,-120.654576,Burger King,93422,CA,Burger King
2015-06-19T21:02:13Z,2018-06-22T18:19:10Z,803 N Main St,Fast food restaurants,Layton,US,us/ut/layton/803nmainst/-2061630068,41.072556,-111.978598,Burger King,84041,UT,Burger King
2015-10-23T00:55:50Z,2018-06-22T18:19:08Z,687 W State St,Fast Food Restaurant,Hurricane,US,us/ut/hurricane/687wstatest/-2061630068,37.176458000000004,-113.300377,Burger King,84737,UT,Burger King
2015-10-23T02:51:48Z,2018-06-22T18:19:05Z,828 Southampton Rd,Fast Food Restaurant,Benicia,US,us/ca/benicia/828southamptonrd/-2061630068,38.06753,-122.16833700000001,Burger King,94510,CA,Burger King
2016-04-01T06:53:05Z,2018-06-22T18:19:00Z,515 E Main St,Fast Food Restaurant and Burger Joint,Uvalde,US,us/tx/uvalde/515emainst/-2061630068,29.21207,-99.778349,Burger King,78801,TX,Burger King
2016-05-21T01:58:21Z,2018-06-22T18:18:59Z,1540 E Main St,Fast Food Restaurant and Burger Joint,Barstow,US,us/ca/barstow/1540emainst/-2061630068,34.891771999999996,-117.001755,Burger King,92311,CA,Burger King
2016-03-28T05:33:18Z,2018-06-22T18:18:57Z,10134 Artesia Blvd,Fast Food Restaurant,Bellflower,US,us/ca/bellflower/10134artesiablvd/-2061630068,33.872425,-118.118195,Burger King,90706,CA,Burger King
2015-10-28T16:25:53Z,2018-06-22T18:18:52Z,1213 N Travis St,Fast Food Restaurants,Sherman,US,us/tx/sherman/1213ntravisst/-2061630068,33.645878,-96.612181,Burger King,75090,TX,Burger King
2014-10-25T15:02:46Z,2018-06-22T18:18:42Z,14130 Ramona Blvd,Fast food restaurants,Baldwin Park,US,us/ca/baldwinpark/14130ramonablvd/-2061630068,34.084903999999995,-117.965034,Burger King,91706,CA,Burger King
2016-03-29T04:57:59Z,2018-06-22T18:18:35Z,17601 Halsted St,Fast Food,Homewood,US,us/il/homewood/17601halstedst/-864103396,41.569334999999995,-87.63619200000001,Taco Bell,60430,IL,Taco Bell
2015-10-23T03:24:10Z,2018-06-22T18:18:27Z,3605 E 18th St,Fast Food Restaurant,Antioch,US,us/ca/antioch/3605e18thst/-2061630068,38.00562,-121.755602,Burger King,94509,CA,Burger King
2017-07-01T00:54:54Z,2018-06-22T18:18:18Z,306 W Rollins Rd,Fast Food Restaurants,Round Lake,US,us/il/roundlake/306wrollinsrd/-864103396,42.379366999999995,-88.090594,Taco Bell,60073,IL,Taco Bell
2016-04-02T05:44:17Z,2018-06-22T18:18:16Z,2182 S Perryville Rd,Fast Food Restaurant,Rockford,US,us/il/rockford/2182sperryvillerd/-864103396,42.242169,-88.979761,Taco Bell,61112,IL,Taco Bell
2015-10-23T00:55:17Z,2018-06-22T18:18:15Z,10710 N Main St,Fast Food Restaurants,Richmond,US,us/il/richmond/10710nmainst/-864103396,42.481615999999995,-88.306089,Taco Bell,60071,IL,Taco Bell
2015-10-23T01:51:35Z,2018-06-22T18:18:14Z,5257 Trompeter Rd,Fast Food Restaurant,Peru,US,us/il/peru/5257trompeterrd/-864103396,41.369912,-89.127509,Taco Bell,61354,IL,Taco Bell
2017-06-19T15:49:00Z,2018-06-22T18:18:14Z,3101 N Sterling Ave,Fast Food,Peoria,US,us/il/peoria/3101nsterlingave/-864103396,40.725904,-89.63255699999999,Taco Bell,61604,IL,Taco Bell
2016-03-27T05:29:01Z,2018-06-22T18:18:13Z,7601 W 111th St,Fast Food Restaurants,Palos Hills,US,us/il/paloshills/7601w111thst/-864103396,41.689687,-87.807139,Taco Bell,60465,IL,Taco Bell
2017-07-21T15:44:23Z,2018-06-22T18:18:13Z,1920 Court St,Fast Food Restaurants,Pekin,US,us/il/pekin/1920courtst/-864103396,40.560185,-89.620775,Taco Bell,61554,IL,Taco Bell
2015-10-23T00:22:02Z,2018-06-22T18:18:12Z,534 Crawford Rd,Fast Food Restaurant,Belton,US,us/sc/belton/534crawfordrd/-1161002137,34.582264,-82.47881,McDonald's,29627,SC,McDonalds
2016-08-25T17:19:26Z,2018-06-22T18:18:11Z,2222 Green Bay Rd,Fast Food,North Chicago,US,us/il/northchicago/2222greenbayrd/-864103396,42.318766,-87.86646999999999,Taco Bell,60064,IL,Taco Bell
2015-10-24T00:24:16Z,2018-06-22T18:18:11Z,1527 E College Ave,Fast Food,Normal,US,us/il/normal/1527ecollegeave/-864103396,40.510327000000004,-88.959485,Taco Bell,61761,IL,Taco Bell
2016-03-25T03:02:35Z,2018-06-22T18:18:10Z,7535 N Harlem Ave,Fast Food Restaurant,Niles,US,us/il/niles/7535nharlemave/-864103396,42.017637,-87.80654799999999,Taco Bell,60714,IL,Taco Bell
2017-07-21T15:44:26Z,2018-06-22T18:18:10Z,100 W Ashland St,Fast Food Restaurant,Morton,US,us/il/morton/100washlandst/-864103396,40.625831,-89.464451,Taco Bell,61550,IL,Taco Bell
2016-03-29T05:04:29Z,2018-06-22T18:18:07Z,1950 Douglas Rd,Fast Food Restaurants,Montgomery,US,us/il/montgomery/1950douglasrd/-864103396,41.71974,-88.319428,Taco Bell,60538,IL,Taco Bell
2016-06-20T17:18:22Z,2018-06-22T18:18:07Z,4650 16th St,Fast Food,Moline,US,us/il/moline/465016thst/-864103396,41.466328999999995,-90.507118,Taco Bell,61265,IL,Taco Bell
2015-10-23T22:43:38Z,2018-06-22T18:18:01Z,7878 Pocomoke Dr,Fast Food Restaurants,Jessup,US,us/md/jessup/7878pocomokedr/-1161002137,39.167615999999995,-76.783963,McDonald's,20794,MD,McDonalds
2016-03-21T00:08:16Z,2018-06-22T18:18:01Z,3340 Mall Loop Dr,Fast Food Restaurant,Joliet,US,us/il/joliet/3340mallloopdr/-864103396,41.579390000000004,-88.165058,Taco Bell,60431,IL,Taco Bell
2016-03-29T04:53:40Z,2018-06-22T18:17:58Z,270 E Army Trail Rd,Fast Food,Glendale Heights,US,us/il/glendaleheights/270earmytrailrd/-864103396,41.935996,-88.071188,Taco Bell,60139,IL,Taco Bell
2016-04-02T05:24:08Z,2018-06-22T18:17:56Z,1882 S West Ave,Fast Food Restaurants,Freeport,US,us/il/freeport/1882swestave/-864103396,42.272672,-89.63141,Taco Bell,61032,IL,Taco Bell
2015-10-24T00:23:58Z,2018-06-22T18:17:49Z,7053 Arundel Mills Cir,Fast Food Restaurant,Hanover,US,us/md/hanover/7053arundelmillscir/-1161002137,39.153002,-76.72381700000001,McDonald's,21076,MD,McDonalds
2017-06-19T15:29:16Z,2018-06-22T18:17:31Z,4396 Montgomery Rd,Fast Food Restaurant,Ellicott City,US,us/md/ellicottcity/4396montgomeryrd/-1161002137,39.250777,-76.813101,McDonald's,21043,MD,McDonalds
2015-11-06T09:52:31Z,2018-06-22T18:17:30Z,226 Belle Hill Rd,Fast food restaurants,Elkton,US,us/md/elkton/226bellehillrd/-1161002137,39.635133,-75.805571,McDonald's,21921,MD,McDonalds
2015-10-23T02:34:16Z,2018-06-22T18:17:27Z,2222 Dundalk Ave,Fast Food Restaurant Saint Helena,Dundalk,US,us/md/dundalk/2222dundalkave/-1161002137,39.264905999999996,-76.527427,McDonald's,21222,MD,McDonalds
2016-04-06T02:22:15Z,2018-06-22T18:17:25Z,10 Maryland Ave,Fast Food Restaurant,Crisfield,US,us/md/crisfield/10marylandave/-1161002137,37.991003000000006,-75.844143,McDonald's,21817,MD,McDonalds
2015-11-02T15:28:59Z,2018-06-22T18:17:24Z,7244 Cradlerock Way,Fast Food Restaurant,Columbia,US,us/md/columbia/7244cradlerockway/-1161002137,39.185679,-76.84341500000001,McDonald's,21045,MD,McDonalds
2016-03-28T05:53:35Z,2018-06-22T18:17:21Z,6095 Daybreak Cir,Fast Food,Clarksville,US,us/md/clarksville/6095daybreakcir/-1161002137,39.210178000000006,-76.937833,McDonald's,21029,MD,McDonalds
2015-10-23T01:32:49Z,2018-06-22T18:17:20Z,875 Washington Ave,Fast Food Restaurant,Chestertown,US,us/md/chestertown/875washingtonave/-1161002137,39.225371,-76.07090699999999,McDonald's,21620,MD,McDonalds
2016-04-01T06:29:06Z,2018-06-22T18:17:18Z,6447 Baltimore National Pike,Fast Food Restaurant,Catonsville,US,us/md/catonsville/6447baltimorenationalpike/-1161002137,39.284946000000005,-76.759683,McDonald's,21228,MD,McDonalds
2015-10-19T17:23:14Z,2018-06-22T18:17:06Z,801 Gravenstein Ave,Fast Food Restaurant,Sebastopol,US,us/ca/sebastopol/801gravensteinave/-1161002137,38.394034999999995,-122.81868899999999,McDonald's,95472,CA,McDonalds
2016-03-26T04:08:20Z,2018-06-22T18:16:55Z,5001 Mckinney Ranch Pkwy,Fast Food Restaurants,McKinney,US,us/tx/mckinney/5001mckinneyranchpkwy/-1161002137,33.158926,-96.68084499999999,McDonald's,75070,TX,McDonalds
2017-11-25T02:06:00Z,2018-06-22T18:16:53Z,6363 Hearne Ave,Fast Food Restaurants,Shreveport,US,us/la/shreveport/6363hearneave/-2061630068,32.448789,-93.781072,Burger King,71108,LA,Burger King
2017-07-24T21:48:24Z,2018-06-22T18:16:49Z,6020 Old Boyce Rd,Fast Food Restaurant,Alexandria,US,us/la/alexandria/6020oldboycerd/-2061630068,31.345107000000002,-92.517004,Burger King,71303,LA,Burger King
2016-04-03T02:10:52Z,2018-06-22T18:16:44Z,439 John Fitch Hwy,Fast food restaurants,Fitchburg,US,us/ma/fitchburg/439johnfitchhwy/-2061630068,42.582414,-71.77521800000001,Burger King,1420,MA,Burger King
2015-11-25T18:16:56Z,2018-06-22T18:16:41Z,489 State St,Fast Food Restaurants,Springfield,US,us/ma/springfield/489statest/-2061630068,42.108163,-72.576647,Burger King,1109,MA,Burger King
2016-11-06T05:20:38Z,2018-06-22T18:16:36Z,5938 Highway 167 N,Fast Food Restaurants,Winnfield,US,us/la/winnfield/5938highway167n/-2061630068,31.936107,-92.653639,Burger King,71483,LA,Burger King
2017-07-03T19:45:06Z,2018-06-22T18:16:29Z,1020 E Madison Ave,Fast Food Restaurant,Bastrop,US,us/la/bastrop/1020emadisonave/-2061630068,32.78127,-91.901043,Burger King,71220,LA,Burger King
2016-03-30T04:25:56Z,2018-06-22T18:16:27Z,7004 Siegen Ln,Fast Food Restaurant,Baton Rouge,US,us/la/batonrouge/7004siegenln/-2061630068,30.385666999999998,-91.06455799999999,Burger King,70809,LA,Burger King
2016-06-20T15:28:58Z,2018-06-22T18:16:27Z,6703 Pines Rd,Fast Food Restaurant,Shreveport,US,us/la/shreveport/6703pinesrd/-2061630068,32.448172,-93.86524200000001,Burger King,71129,LA,Burger King
2016-03-30T04:05:58Z,2018-06-22T18:16:21Z,2192 S Sherwood Forest Blvd,Fast Food Restaurant,Baton Rouge,US,us/la/batonrouge/2192ssherwoodforestblvd/-2061630068,30.433078000000002,-91.057839,Burger King,70816,LA,Burger King
2015-10-23T00:42:01Z,2018-06-22T18:16:14Z,5131 Main St,Fast Food Restaurant,Zachary,US,us/la/zachary/5131mainst/-2061630068,30.647977,-91.151824,Burger King,70791,LA,Burger King
2017-06-19T15:59:26Z,2018-06-22T18:16:12Z,3701 Bragg Blvd,Fast Food Restaurants,Fayetteville,US,us/nc/fayetteville/3701braggblvd/-1161002137,35.07857,-78.940747,McDonald's,28303,NC,McDonalds
2015-11-06T10:29:12Z,2018-06-22T18:16:12Z,4383 La Highway 1 S,Fast Food Restaurants,Port Allen,US,us/la/portallen/4383lahighway1s/-2061630068,30.406769,-91.229842,Burger King,70767,LA,Burger King
2017-06-19T15:56:37Z,2018-06-22T18:16:07Z,6728 Kalamazoo Ave SE,Fast Food Restaurant,Grand Rapids,US,us/mi/grandrapids/6728kalamazooavese/-864103396,42.842144,-85.62473100000001,Taco Bell,49508,MI,Taco Bell
2016-04-01T06:53:23Z,2018-06-22T18:16:07Z,943 Creswell Ln,Fast Food Restaurant,Opelousas,US,us/la/opelousas/943creswellln/-2061630068,30.519384000000002,-92.07499399999999,Burger King,70570,LA,Burger King
2015-10-19T15:29:37Z,2018-06-22T18:16:01Z,2919 S Lewis St,Fast Food Restaurants,New Iberia,US,us/la/newiberia/2919slewisst/-2061630068,29.968869,-91.835925,Burger King,70560,LA,Burger King
2015-11-13T18:37:46Z,2018-06-21T21:36:32Z,18234 Maugans Ave,Fast Food Restaurant,Hagerstown,US,us/md/hagerstown/18234maugansave/-2061630068,39.691607,-77.73881800000001,Burger King,21740,MD,Burger King
2016-03-30T03:57:30Z,2018-06-21T21:36:30Z,17532 Valley Mall Rd,Fast Food Restaurant,Hagerstown,US,us/md/hagerstown/17532valleymallrd/-2061630068,39.626191,-77.767691,Burger King,21740,MD,Burger King
2015-11-25T18:19:15Z,2018-06-21T21:36:29Z,10516 Sharpsburg Pike,Fast Food Restaurant,Hagerstown,US,us/md/hagerstown/10516sharpsburgpike/-2061630068,39.600468,-77.729678,Burger King,21740,MD,Burger King
2016-01-06T18:23:26Z,2018-06-21T21:36:24Z,2811 Chestnut Ridge Rd,Fast Food Restaurant and Burger Joint,Grantsville,US,us/md/grantsville/2811chestnutridgerd/-2061630068,39.690789,-79.103802,Burger King,21536,MD,Burger King
2016-01-06T18:23:59Z,2018-06-21T21:36:23Z,1299 National Hwy,Fast Food Restaurants,Cumberland,US,us/md/cumberland/1299nationalhwy/-2061630068,39.637928,-78.832937,Burger King,21502,MD,Burger King
2016-04-05T02:18:03Z,2018-06-21T21:36:23Z,6 Hampton Inn Dr,Fast Food Restaurants,Frostburg,US,us/md/frostburg/6hamptoninndr/-2061630068,39.642962,-78.909752,Burger King,21532,MD,Burger King
2015-09-13T03:27:00Z,2018-06-21T21:36:21Z,8022 Liberty Rd,Fast Food Restaurant,Windsor Mill,US,us/md/windsormill/8022libertyrd/-2061630068,39.353322,-76.75575400000001,Burger King,21244,MD,Burger King
2016-03-23T04:36:28Z,2018-06-21T21:36:19Z,8304 Pulaski Hwy,Fast Food Restaurant,Rosedale,US,us/md/rosedale/8304pulaskihwy/-2061630068,39.32338,-76.502491,Burger King,21237,MD,Burger King
2015-10-23T02:56:34Z,2018-06-21T21:36:16Z,5604 Baltimore National Pike,Fast Food Restaurant,Catonsville,US,us/md/catonsville/5604baltimorenationalpike/-2061630068,39.289590999999994,-76.726646,Burger King,21228,MD,Burger King
2015-10-23T01:58:30Z,2018-06-21T21:36:15Z,6807 Rolling Mill Rd,Fast Food Restaurants,Baltimore,US,us/md/baltimore/6807rollingmillrd/-2061630068,39.297176,-76.52934599999999,Burger King,21224,MD,Burger King
2015-10-23T03:24:52Z,2018-06-21T21:36:06Z,990 Pulaski Hwy,Fast Food Restaurant,Havre de Grace,US,us/md/havredegrace/990pulaskihwy/-2061630068,39.546763,-76.106205,Burger King,21078,MD,Burger King
2016-04-03T11:53:46Z,2018-06-21T21:36:03Z,14 Mountain Rd,"Fast Food Restaurant, Burger Joint, and American Restaurant",Glen Burnie,US,us/md/glenburnie/14mountainrd/-2061630068,39.135989,-76.597223,Burger King,21060,MD,Burger King
2017-07-03T19:51:40Z,2018-06-21T21:35:54Z,12265 Veirs Mill Rd,Fast Food Restaurant,Silver Spring,US,us/md/silverspring/12265veirsmillrd/-2061630068,39.05768,-77.084654,Burger King,20906,MD,Burger King
2017-06-19T15:38:13Z,2018-06-21T21:35:51Z,6505 Annapolis Rd,Fast Food Restaurant,Hyattsville,US,us/md/hyattsville/6505annapolisrd/-2061630068,38.939492,-76.906024,Burger King,20784,MD,Burger King
2016-03-23T04:36:41Z,2018-06-21T21:35:49Z,2208 University Blvd E,Fast Food Restaurant,Hyattsville,US,us/md/hyattsville/2208universityblvde/-2061630068,38.984017,-76.975083,Burger King,20783,MD,Burger King
2015-10-25T18:03:45Z,2018-06-21T21:35:01Z,1601 W Charleston Blvd,Fast Food,Las Vegas,US,us/nv/lasvegas/1601wcharlestonblvd/-1161002137,36.158309,-115.16268400000001,McDonald's,89102,NV,McDonalds
2017-06-19T15:34:47Z,2018-06-21T21:35:00Z,2095 Brierley Way,Fast Food,Sparks,US,us/nv/sparks/2095brierleyway/-1161002137,39.527755,-119.701355,McDonald's,89434,NV,McDonalds
2015-09-02T21:07:59Z,2018-06-21T21:34:49Z,1408 W Craig Rd,Fast Food Restaurant,North Las Vegas,US,us/nv/northlasvegas/1408wcraigrd/-1161002137,36.239482,-115.16089299999999,McDonald's,89032,NV,McDonalds
2016-06-20T20:08:10Z,2018-06-21T21:34:47Z,7851 W Charleston Blvd,Fast Food Restaurant,Las Vegas,US,us/nv/lasvegas/7851wcharlestonblvd/-1161002137,36.158558,-115.26313200000001,McDonald's,89117,NV,McDonalds
2017-04-18T01:17:23Z,2018-06-21T21:34:47Z,5200 S Fort Apache Rd,Fast Food,Las Vegas,US,us/nv/lasvegas/5200sfortapacherd/-1161002137,36.09383,-115.294615,McDonald's,89148,NV,McDonalds
2016-07-21T13:05:24Z,2018-06-21T21:34:45Z,301 Fremont St,Fast Food,Las Vegas,US,us/nv/lasvegas/301fremontst/-1161002137,36.169828,-115.14284099999999,McDonald's,89101,NV,McDonalds
2016-06-05T19:10:28Z,2018-06-21T21:34:45Z,1501 W Lake Mead Blvd,Fast Food Restaurant,Las Vegas,US,us/nv/lasvegas/1501wlakemeadblvd/-1161002137,36.195232,-115.161299,McDonald's,89106,NV,McDonalds
2017-07-20T14:56:46Z,2018-06-21T21:34:44Z,4300 Meadows Ln,Fast Food Restaurants,Las Vegas,US,us/nv/lasvegas/4300meadowsln/-1161002137,36.172774,-115.20043999999999,McDonald's,89107,NV,McDonalds
2015-10-23T02:56:44Z,2018-06-21T21:34:44Z,4215 Las Vegas Blvd N,Fast Food Restaurant Nellis Air Force Base,Las Vegas,US,us/nv/lasvegas/4215lasvegasblvdn/-1161002137,36.236888,-115.06163600000001,McDonald's,89115,NV,McDonalds
2016-05-04T01:48:51Z,2018-06-21T21:34:43Z,3626 S Rainbow Blvd,Fast Food Restaurant,Las Vegas,US,us/nv/lasvegas/3626srainbowblvd/-1161002137,36.123133,-115.24283899999999,McDonald's,89103,NV,McDonalds
2016-03-24T09:56:05Z,2018-06-21T21:34:40Z,2513 E Owens Ave,Fast Food Restaurant and Burger Joint,North Las Vegas,US,us/nv/northlasvegas/2513eowensave/-1161002137,36.188148,-115.115191,McDonald's,89030,NV,McDonalds
